{
  "type": "FeatureCollection",
  "features": [
    {
      "type": "Feature",
      "properties": {
        "city": "Абаза (город)",
        "year": "2018",
        "population": "15335",
        "diff": "-1.65",
        "clr": "decline"
      },
      "geometry": {
        "type": "Point",
        "coordinates": [90.0833333333333,52.65]
      }
    },
    {
      "type": "Feature",
      "properties": {
        "city": "Абакан",
        "year": "2018",
        "population": "184168",
        "diff": "1.35",
        "clr": "growh"
      },
      "geometry": {
        "type": "Point",
        "coordinates": [91.4166666666667,53.7166666666667]
      }
    },
    {
      "type": "Feature",
      "properties": {
        "city": "Абдулино",
        "year": "2018",
        "population": "19222",
        "diff": "0",
        "clr": "zero"
      },
      "geometry": {
        "type": "Point",
        "coordinates": [53.65,53.6833333333333]
      }
    },
    {
      "type": "Feature",
      "properties": {
        "city": "Абинск",
        "year": "2018",
        "population": "38176",
        "diff": "1.13",
        "clr": "growh"
      },
      "geometry": {
        "type": "Point",
        "coordinates": [38.1666666666667,44.8666666666667]
      }
    },
    {
      "type": "Feature",
      "properties": {
        "city": "Агидель",
        "year": "2018",
        "population": "15281",
        "diff": "0",
        "clr": "zero"
      },
      "geometry": {
        "type": "Point",
        "coordinates": [53.9333333333333,55.9]
      }
    },
    {
      "type": "Feature",
      "properties": {
        "city": "Агрыз",
        "year": "2018",
        "population": "19704",
        "diff": "0",
        "clr": "zero"
      },
      "geometry": {
        "type": "Point",
        "coordinates": [52.9833333333333,56.5166666666667]
      }
    },
    {
      "type": "Feature",
      "properties": {
        "city": "Адыгейск",
        "year": "2018",
        "population": "12745",
        "diff": "0.35",
        "clr": "growh"
      },
      "geometry": {
        "type": "Point",
        "coordinates": [39.1833333333333,44.8844444444444]
      }
    },
    {
      "type": "Feature",
      "properties": {
        "city": "Азнакаево",
        "year": "2018",
        "population": "34863",
        "diff": "0",
        "clr": "zero"
      },
      "geometry": {
        "type": "Point",
        "coordinates": [53.0666666666667,54.85]
      }
    },
    {
      "type": "Feature",
      "properties": {
        "city": "Азов",
        "year": "2018",
        "population": "81335",
        "diff": "0",
        "clr": "zero"
      },
      "geometry": {
        "type": "Point",
        "coordinates": [39.4166666666667,47.1]
      }
    },
    {
      "type": "Feature",
      "properties": {
        "city": "Ак-Довурак",
        "year": "2018",
        "population": "13578",
        "diff": "0",
        "clr": "zero"
      },
      "geometry": {
        "type": "Point",
        "coordinates": [90.6,51.1666666666667]
      }
    },
    {
      "type": "Feature",
      "properties": {
        "city": "Аксай (Ростовская область)",
        "year": "2018",
        "population": "44828",
        "diff": "0",
        "clr": "zero"
      },
      "geometry": {
        "type": "Point",
        "coordinates": [39.8666666666667,47.2666666666667]
      }
    },
    {
      "type": "Feature",
      "properties": {
        "city": "Алагир",
        "year": "2018",
        "population": "20043",
        "diff": "-0.45",
        "clr": "decline"
      },
      "geometry": {
        "type": "Point",
        "coordinates": [44.2,43.0416666666667]
      }
    },
    {
      "type": "Feature",
      "properties": {
        "city": "Алапаевск",
        "year": "2018",
        "population": "37526",
        "diff": "-0.34",
        "clr": "decline"
      },
      "geometry": {
        "type": "Point",
        "coordinates": [61.7,57.85]
      }
    },
    {
      "type": "Feature",
      "properties": {
        "city": "Алатырь",
        "year": "2018",
        "population": "35298",
        "diff": "0",
        "clr": "zero"
      },
      "geometry": {
        "type": "Point",
        "coordinates": [46.5833333333333,54.85]
      }
    },
    {
      "type": "Feature",
      "properties": {
        "city": "Алдан (город)",
        "year": "2018",
        "population": "20700",
        "diff": "0",
        "clr": "zero"
      },
      "geometry": {
        "type": "Point",
        "coordinates": [125.383333333333,58.6]
      }
    },
    {
      "type": "Feature",
      "properties": {
        "city": "Алейск",
        "year": "2018",
        "population": "28972",
        "diff": "0.82",
        "clr": "growh"
      },
      "geometry": {
        "type": "Point",
        "coordinates": [82.7833333333333,52.5]
      }
    },
    {
      "type": "Feature",
      "properties": {
        "city": "Александров (город)",
        "year": "2018",
        "population": "59328",
        "diff": "0",
        "clr": "zero"
      },
      "geometry": {
        "type": "Point",
        "coordinates": [38.7,56.3936111111111]
      }
    },
    {
      "type": "Feature",
      "properties": {
        "city": "Александровск (Пермский край)",
        "year": "2018",
        "population": "12841",
        "diff": "0",
        "clr": "zero"
      },
      "geometry": {
        "type": "Point",
        "coordinates": [57.5833333333333,59.1666666666667]
      }
    },
    {
      "type": "Feature",
      "properties": {
        "city": "Александровск-Сахалинский",
        "year": "2018",
        "population": "9504",
        "diff": "-0.86",
        "clr": "decline"
      },
      "geometry": {
        "type": "Point",
        "coordinates": [142.15,50.9]
      }
    },
    {
      "type": "Feature",
      "properties": {
        "city": "Алексеевка (город, Белгородская область)",
        "year": "2018",
        "population": "38447",
        "diff": "0",
        "clr": "zero"
      },
      "geometry": {
        "type": "Point",
        "coordinates": [38.6833333333333,50.63]
      }
    },
    {
      "type": "Feature",
      "properties": {
        "city": "Алексин",
        "year": "2018",
        "population": "58329",
        "diff": "0",
        "clr": "zero"
      },
      "geometry": {
        "type": "Point",
        "coordinates": [37.0666666666667,54.5]
      }
    },
    {
      "type": "Feature",
      "properties": {
        "city": "Алзамай",
        "year": "2018",
        "population": "6040",
        "diff": "0",
        "clr": "zero"
      },
      "geometry": {
        "type": "Point",
        "coordinates": [98.6666666666667,55.55]
      }
    },
    {
      "type": "Feature",
      "properties": {
        "city": "Альметьевск",
        "year": "2018",
        "population": "154262",
        "diff": "0",
        "clr": "zero"
      },
      "geometry": {
        "type": "Point",
        "coordinates": [52.3,54.9]
      }
    },
    {
      "type": "Feature",
      "properties": {
        "city": "Амурск",
        "year": "2018",
        "population": "39431",
        "diff": "-1.68",
        "clr": "decline"
      },
      "geometry": {
        "type": "Point",
        "coordinates": [136.9,50.2166666666667]
      }
    },
    {
      "type": "Feature",
      "properties": {
        "city": "Анадырь",
        "year": "2018",
        "population": "15604",
        "diff": "0.88",
        "clr": "growh"
      },
      "geometry": {
        "type": "Point",
        "coordinates": [177.516666666667,64.7333333333333]
      }
    },
    {
      "type": "Feature",
      "properties": {
        "city": "Анапа",
        "year": "2018",
        "population": "75865",
        "diff": "0.65",
        "clr": "growh"
      },
      "geometry": {
        "type": "Point",
        "coordinates": [37.3166666666667,44.8944444444444]
      }
    },
    {
      "type": "Feature",
      "properties": {
        "city": "Ангарск",
        "year": "2018",
        "population": "226374",
        "diff": "0",
        "clr": "zero"
      },
      "geometry": {
        "type": "Point",
        "coordinates": [103.916666666667,52.5666666666667]
      }
    },
    {
      "type": "Feature",
      "properties": {
        "city": "Андреаполь",
        "year": "2018",
        "population": "7259",
        "diff": "0",
        "clr": "zero"
      },
      "geometry": {
        "type": "Point",
        "coordinates": [32.2666666666667,56.65]
      }
    },
    {
      "type": "Feature",
      "properties": {
        "city": "Анжеро-Судженск",
        "year": "2018",
        "population": "71787",
        "diff": "0",
        "clr": "zero"
      },
      "geometry": {
        "type": "Point",
        "coordinates": [86.0333333333333,56.0833333333333]
      }
    },
    {
      "type": "Feature",
      "properties": {
        "city": "Анива (город)",
        "year": "2018",
        "population": "9445",
        "diff": "0.16",
        "clr": "growh"
      },
      "geometry": {
        "type": "Point",
        "coordinates": [142.516666666667,46.7166666666667]
      }
    },
    {
      "type": "Feature",
      "properties": {
        "city": "Апатиты",
        "year": "2018",
        "population": "55713",
        "diff": "-1.14",
        "clr": "decline"
      },
      "geometry": {
        "type": "Point",
        "coordinates": [33.3833333333333,67.5675]
      }
    },
    {
      "type": "Feature",
      "properties": {
        "city": "Апрелевка",
        "year": "2018",
        "population": "27860",
        "diff": "4.7",
        "clr": "growh"
      },
      "geometry": {
        "type": "Point",
        "coordinates": [37.05,55.5333333333333]
      }
    },
    {
      "type": "Feature",
      "properties": {
        "city": "Апшеронск",
        "year": "2018",
        "population": "40016",
        "diff": "-0.55",
        "clr": "decline"
      },
      "geometry": {
        "type": "Point",
        "coordinates": [39.7333333333333,44.4608333333333]
      }
    },
    {
      "type": "Feature",
      "properties": {
        "city": "Арамиль",
        "year": "2018",
        "population": "15162",
        "diff": "0",
        "clr": "zero"
      },
      "geometry": {
        "type": "Point",
        "coordinates": [60.8333333333333,56.7]
      }
    },
    {
      "type": "Feature",
      "properties": {
        "city": "Аргун (город)",
        "year": "2018",
        "population": "37373",
        "diff": "2.43",
        "clr": "growh"
      },
      "geometry": {
        "type": "Point",
        "coordinates": [45.8833333333333,43.2944444444444]
      }
    },
    {
      "type": "Feature",
      "properties": {
        "city": "Ардатов (Мордовия)",
        "year": "2018",
        "population": "8734",
        "diff": "0",
        "clr": "zero"
      },
      "geometry": {
        "type": "Point",
        "coordinates": [46.2333333333333,54.85]
      }
    },
    {
      "type": "Feature",
      "properties": {
        "city": "Ардон (город)",
        "year": "2018",
        "population": "19412",
        "diff": "0.21",
        "clr": "growh"
      },
      "geometry": {
        "type": "Point",
        "coordinates": [44.2833333333333,43.1727777777778]
      }
    },
    {
      "type": "Feature",
      "properties": {
        "city": "Арзамас",
        "year": "2018",
        "population": "104547",
        "diff": "0",
        "clr": "zero"
      },
      "geometry": {
        "type": "Point",
        "coordinates": [43.8,55.3833333333333]
      }
    },
    {
      "type": "Feature",
      "properties": {
        "city": "Аркадак",
        "year": "2018",
        "population": "11986",
        "diff": "0",
        "clr": "zero"
      },
      "geometry": {
        "type": "Point",
        "coordinates": [43.5,51.9333333333333]
      }
    },
    {
      "type": "Feature",
      "properties": {
        "city": "Армавир (Россия)",
        "year": "2018",
        "population": "190709",
        "diff": "-0.08",
        "clr": "decline"
      },
      "geometry": {
        "type": "Point",
        "coordinates": [41.1166666666667,45]
      }
    },
    {
      "type": "Feature",
      "properties": {
        "city": "Армянск",
        "year": "2018",
        "population": "21754",
        "diff": "-0.92",
        "clr": "decline"
      },
      "geometry": {
        "type": "Point",
        "coordinates": [33.6833333333333,46.1069444444444]
      }
    },
    {
      "type": "Feature",
      "properties": {
        "city": "Арсеньев (город)",
        "year": "2018",
        "population": "52471",
        "diff": "-0.56",
        "clr": "decline"
      },
      "geometry": {
        "type": "Point",
        "coordinates": [133.266666666667,44.1666666666667]
      }
    },
    {
      "type": "Feature",
      "properties": {
        "city": "Арск",
        "year": "2018",
        "population": "20419",
        "diff": "0",
        "clr": "zero"
      },
      "geometry": {
        "type": "Point",
        "coordinates": [49.8666666666667,56.0905555555556]
      }
    },
    {
      "type": "Feature",
      "properties": {
        "city": "Артём (город)",
        "year": "2018",
        "population": "106692",
        "diff": "-0.04",
        "clr": "decline"
      },
      "geometry": {
        "type": "Point",
        "coordinates": [132.183333333333,43.35]
      }
    },
    {
      "type": "Feature",
      "properties": {
        "city": "Артёмовск (Россия)",
        "year": "2018",
        "population": "1705",
        "diff": "0",
        "clr": "zero"
      },
      "geometry": {
        "type": "Point",
        "coordinates": [93.4333333333333,54.35]
      }
    },
    {
      "type": "Feature",
      "properties": {
        "city": "Артёмовский",
        "year": "2018",
        "population": "30778",
        "diff": "-0.5",
        "clr": "decline"
      },
      "geometry": {
        "type": "Point",
        "coordinates": [61.8833333333333,57.3363888888889]
      }
    },
    {
      "type": "Feature",
      "properties": {
        "city": "Архангельск",
        "year": "2018",
        "population": "349742",
        "diff": "-0.5",
        "clr": "decline"
      },
      "geometry": {
        "type": "Point",
        "coordinates": [40.5333333333333,64.55]
      }
    },
    {
      "type": "Feature",
      "properties": {
        "city": "Асбест (город)",
        "year": "2018",
        "population": "64091",
        "diff": "-0.89",
        "clr": "decline"
      },
      "geometry": {
        "type": "Point",
        "coordinates": [61.45,57.0102777777778]
      }
    },
    {
      "type": "Feature",
      "properties": {
        "city": "Асино",
        "year": "2018",
        "population": "24351",
        "diff": "-0.77",
        "clr": "decline"
      },
      "geometry": {
        "type": "Point",
        "coordinates": [86.15,57]
      }
    },
    {
      "type": "Feature",
      "properties": {
        "city": "Астрахань",
        "year": "2018",
        "population": "533925",
        "diff": "0.27",
        "clr": "growh"
      },
      "geometry": {
        "type": "Point",
        "coordinates": [48.0333333333333,46.3333333333333]
      }
    },
    {
      "type": "Feature",
      "properties": {
        "city": "Аткарск",
        "year": "2018",
        "population": "25384",
        "diff": "0",
        "clr": "zero"
      },
      "geometry": {
        "type": "Point",
        "coordinates": [45,51.8666666666667]
      }
    },
    {
      "type": "Feature",
      "properties": {
        "city": "Ахтубинск",
        "year": "2018",
        "population": "37883",
        "diff": "0",
        "clr": "zero"
      },
      "geometry": {
        "type": "Point",
        "coordinates": [46.1666666666667,48.2833333333333]
      }
    },
    {
      "type": "Feature",
      "properties": {
        "city": "Ачинск",
        "year": "2018",
        "population": "105264",
        "diff": "0",
        "clr": "zero"
      },
      "geometry": {
        "type": "Point",
        "coordinates": [90.5,56.2666666666667]
      }
    },
    {
      "type": "Feature",
      "properties": {
        "city": "Аша",
        "year": "2018",
        "population": "29946",
        "diff": "0",
        "clr": "zero"
      },
      "geometry": {
        "type": "Point",
        "coordinates": [57.25,55]
      }
    },
    {
      "type": "Feature",
      "properties": {
        "city": "Бабаево",
        "year": "2018",
        "population": "11493",
        "diff": "0",
        "clr": "zero"
      },
      "geometry": {
        "type": "Point",
        "coordinates": [35.95,59.3833333333333]
      }
    },
    {
      "type": "Feature",
      "properties": {
        "city": "Бабушкин (Бурятия)",
        "year": "2018",
        "population": "4542",
        "diff": "0",
        "clr": "zero"
      },
      "geometry": {
        "type": "Point",
        "coordinates": [105.866666666667,51.7166666666667]
      }
    },
    {
      "type": "Feature",
      "properties": {
        "city": "Бавлы",
        "year": "2018",
        "population": "22258",
        "diff": "0",
        "clr": "zero"
      },
      "geometry": {
        "type": "Point",
        "coordinates": [53.25,54.4]
      }
    },
    {
      "type": "Feature",
      "properties": {
        "city": "Багратионовск",
        "year": "2018",
        "population": "6409",
        "diff": "0",
        "clr": "zero"
      },
      "geometry": {
        "type": "Point",
        "coordinates": [20.6333333333333,54.3833333333333]
      }
    },
    {
      "type": "Feature",
      "properties": {
        "city": "Байкальск",
        "year": "2018",
        "population": "12738",
        "diff": "0",
        "clr": "zero"
      },
      "geometry": {
        "type": "Point",
        "coordinates": [104.15,51.5172222222222]
      }
    },
    {
      "type": "Feature",
      "properties": {
        "city": "Баймак",
        "year": "2018",
        "population": "17529",
        "diff": "0",
        "clr": "zero"
      },
      "geometry": {
        "type": "Point",
        "coordinates": [58.3166666666667,52.5833333333333]
      }
    },
    {
      "type": "Feature",
      "properties": {
        "city": "Бакал",
        "year": "2018",
        "population": "19590",
        "diff": "0",
        "clr": "zero"
      },
      "geometry": {
        "type": "Point",
        "coordinates": [58.8,54.9333333333333]
      }
    },
    {
      "type": "Feature",
      "properties": {
        "city": "Баксан (город)",
        "year": "2018",
        "population": "38192",
        "diff": "0.37",
        "clr": "growh"
      },
      "geometry": {
        "type": "Point",
        "coordinates": [43.5333333333333,43.6833333333333]
      }
    },
    {
      "type": "Feature",
      "properties": {
        "city": "Балабаново",
        "year": "2018",
        "population": "25752",
        "diff": "0",
        "clr": "zero"
      },
      "geometry": {
        "type": "Point",
        "coordinates": [36.65,55.1833333333333]
      }
    },
    {
      "type": "Feature",
      "properties": {
        "city": "Балаково",
        "year": "2018",
        "population": "191260",
        "diff": "0",
        "clr": "zero"
      },
      "geometry": {
        "type": "Point",
        "coordinates": [47.7833333333333,52.0333333333333]
      }
    },
    {
      "type": "Feature",
      "properties": {
        "city": "Балахна",
        "year": "2018",
        "population": "49364",
        "diff": "0",
        "clr": "zero"
      },
      "geometry": {
        "type": "Point",
        "coordinates": [43.5333333333333,56.4808333333333]
      }
    },
    {
      "type": "Feature",
      "properties": {
        "city": "Балашиха",
        "year": "2018",
        "population": "468221",
        "diff": "3.87",
        "clr": "growh"
      },
      "geometry": {
        "type": "Point",
        "coordinates": [37.95,55.8]
      }
    },
    {
      "type": "Feature",
      "properties": {
        "city": "Балашов (город)",
        "year": "2018",
        "population": "77391",
        "diff": "0",
        "clr": "zero"
      },
      "geometry": {
        "type": "Point",
        "coordinates": [43.1666666666667,51.55]
      }
    },
    {
      "type": "Feature",
      "properties": {
        "city": "Балей",
        "year": "2018",
        "population": "11370",
        "diff": "0",
        "clr": "zero"
      },
      "geometry": {
        "type": "Point",
        "coordinates": [116.633333333333,51.5769444444444]
      }
    },
    {
      "type": "Feature",
      "properties": {
        "city": "Балтийск",
        "year": "2018",
        "population": "33181",
        "diff": "0",
        "clr": "zero"
      },
      "geometry": {
        "type": "Point",
        "coordinates": [19.9166666666667,54.65]
      }
    },
    {
      "type": "Feature",
      "properties": {
        "city": "Барабинск",
        "year": "2018",
        "population": "29122",
        "diff": "0",
        "clr": "zero"
      },
      "geometry": {
        "type": "Point",
        "coordinates": [78.35,55.35]
      }
    },
    {
      "type": "Feature",
      "properties": {
        "city": "Барнаул",
        "year": "2018",
        "population": "632372",
        "diff": "-0.15",
        "clr": "decline"
      },
      "geometry": {
        "type": "Point",
        "coordinates": [83.7666666666667,53.3473611111111]
      }
    },
    {
      "type": "Feature",
      "properties": {
        "city": "Барыш (город)",
        "year": "2018",
        "population": "16147",
        "diff": "0",
        "clr": "zero"
      },
      "geometry": {
        "type": "Point",
        "coordinates": [47.1166666666667,53.65]
      }
    },
    {
      "type": "Feature",
      "properties": {
        "city": "Батайск",
        "year": "2018",
        "population": "124705",
        "diff": "0",
        "clr": "zero"
      },
      "geometry": {
        "type": "Point",
        "coordinates": [39.75,47.1333333333333]
      }
    },
    {
      "type": "Feature",
      "properties": {
        "city": "Бахчисарай",
        "year": "2018",
        "population": "26874",
        "diff": "-1.15",
        "clr": "decline"
      },
      "geometry": {
        "type": "Point",
        "coordinates": [33.85,44.7527777777778]
      }
    },
    {
      "type": "Feature",
      "properties": {
        "city": "Бежецк",
        "year": "2018",
        "population": "21728",
        "diff": "0",
        "clr": "zero"
      },
      "geometry": {
        "type": "Point",
        "coordinates": [36.7,57.7833333333333]
      }
    },
    {
      "type": "Feature",
      "properties": {
        "city": "Белая Калитва",
        "year": "2018",
        "population": "40831",
        "diff": "0",
        "clr": "zero"
      },
      "geometry": {
        "type": "Point",
        "coordinates": [40.7833333333333,48.1747222222222]
      }
    },
    {
      "type": "Feature",
      "properties": {
        "city": "Белая Холуница",
        "year": "2018",
        "population": "10406",
        "diff": "-1.06",
        "clr": "decline"
      },
      "geometry": {
        "type": "Point",
        "coordinates": [50.85,58.8333333333333]
      }
    },
    {
      "type": "Feature",
      "properties": {
        "city": "Белгород",
        "year": "2018",
        "population": "391554",
        "diff": "0.11",
        "clr": "growh"
      },
      "geometry": {
        "type": "Point",
        "coordinates": [36.6,50.6]
      }
    },
    {
      "type": "Feature",
      "properties": {
        "city": "Белебей",
        "year": "2018",
        "population": "59123",
        "diff": "0",
        "clr": "zero"
      },
      "geometry": {
        "type": "Point",
        "coordinates": [54.1333333333333,54.1]
      }
    },
    {
      "type": "Feature",
      "properties": {
        "city": "Белёв",
        "year": "2018",
        "population": "13362",
        "diff": "0",
        "clr": "zero"
      },
      "geometry": {
        "type": "Point",
        "coordinates": [36.1333333333333,53.8]
      }
    },
    {
      "type": "Feature",
      "properties": {
        "city": "Белинский (город)",
        "year": "2018",
        "population": "7694",
        "diff": "-1.9",
        "clr": "decline"
      },
      "geometry": {
        "type": "Point",
        "coordinates": [43.4166666666667,52.9666666666667]
      }
    },
    {
      "type": "Feature",
      "properties": {
        "city": "Белово",
        "year": "2018",
        "population": "72843",
        "diff": "0",
        "clr": "zero"
      },
      "geometry": {
        "type": "Point",
        "coordinates": [86.3,54.4166666666667]
      }
    },
    {
      "type": "Feature",
      "properties": {
        "city": "Белогорск (Амурская область)",
        "year": "2018",
        "population": "66183",
        "diff": "-0.39",
        "clr": "decline"
      },
      "geometry": {
        "type": "Point",
        "coordinates": [128.483333333333,50.9166666666667]
      }
    },
    {
      "type": "Feature",
      "properties": {
        "city": "Белогорск (Крым)",
        "year": "2018",
        "population": "16391",
        "diff": "-0.31",
        "clr": "decline"
      },
      "geometry": {
        "type": "Point",
        "coordinates": [34.6,45.0544444444444]
      }
    },
    {
      "type": "Feature",
      "properties": {
        "city": "Белокуриха",
        "year": "2018",
        "population": "15179",
        "diff": "-0.56",
        "clr": "decline"
      },
      "geometry": {
        "type": "Point",
        "coordinates": [84.9833333333333,52]
      }
    },
    {
      "type": "Feature",
      "properties": {
        "city": "Беломорск",
        "year": "2018",
        "population": "9678",
        "diff": "-1.86",
        "clr": "decline"
      },
      "geometry": {
        "type": "Point",
        "coordinates": [34.7666666666667,64.5166666666667]
      }
    },
    {
      "type": "Feature",
      "properties": {
        "city": "Белорецк",
        "year": "2018",
        "population": "65801",
        "diff": "0",
        "clr": "zero"
      },
      "geometry": {
        "type": "Point",
        "coordinates": [58.4,53.9666666666667]
      }
    },
    {
      "type": "Feature",
      "properties": {
        "city": "Белореченск",
        "year": "2018",
        "population": "52082",
        "diff": "-0.35",
        "clr": "decline"
      },
      "geometry": {
        "type": "Point",
        "coordinates": [39.8666666666667,44.7666666666667]
      }
    },
    {
      "type": "Feature",
      "properties": {
        "city": "Белоусово (город)",
        "year": "2018",
        "population": "9288",
        "diff": "0",
        "clr": "zero"
      },
      "geometry": {
        "type": "Point",
        "coordinates": [36.6666666666667,55.0916666666667]
      }
    },
    {
      "type": "Feature",
      "properties": {
        "city": "Белоярский (город)",
        "year": "2018",
        "population": "20142",
        "diff": "0",
        "clr": "zero"
      },
      "geometry": {
        "type": "Point",
        "coordinates": [66.6666666666667,63.7166666666667]
      }
    },
    {
      "type": "Feature",
      "properties": {
        "city": "Белый (город)",
        "year": "2018",
        "population": "3268",
        "diff": "0",
        "clr": "zero"
      },
      "geometry": {
        "type": "Point",
        "coordinates": [32.9333333333333,55.8333333333333]
      }
    },
    {
      "type": "Feature",
      "properties": {
        "city": "Бердск",
        "year": "2018",
        "population": "103290",
        "diff": "0",
        "clr": "zero"
      },
      "geometry": {
        "type": "Point",
        "coordinates": [83.1,54.75]
      }
    },
    {
      "type": "Feature",
      "properties": {
        "city": "Березники",
        "year": "2018",
        "population": "145115",
        "diff": "0",
        "clr": "zero"
      },
      "geometry": {
        "type": "Point",
        "coordinates": [56.7833333333333,59.4166666666667]
      }
    },
    {
      "type": "Feature",
      "properties": {
        "city": "Берёзовский (Кемеровская область)",
        "year": "2018",
        "population": "46859",
        "diff": "0",
        "clr": "zero"
      },
      "geometry": {
        "type": "Point",
        "coordinates": [86.25,55.6666666666667]
      }
    },
    {
      "type": "Feature",
      "properties": {
        "city": "Берёзовский (Свердловская область)",
        "year": "2018",
        "population": "57892",
        "diff": "1.22",
        "clr": "growh"
      },
      "geometry": {
        "type": "Point",
        "coordinates": [60.8,56.9]
      }
    },
    {
      "type": "Feature",
      "properties": {
        "city": "Беслан",
        "year": "2018",
        "population": "37029",
        "diff": "0.01",
        "clr": "growh"
      },
      "geometry": {
        "type": "Point",
        "coordinates": [44.5166666666667,43.1888888888889]
      }
    },
    {
      "type": "Feature",
      "properties": {
        "city": "Бийск",
        "year": "2018",
        "population": "201914",
        "diff": "-0.59",
        "clr": "decline"
      },
      "geometry": {
        "type": "Point",
        "coordinates": [85.1666666666667,52.5166666666667]
      }
    },
    {
      "type": "Feature",
      "properties": {
        "city": "Бикин (город)",
        "year": "2018",
        "population": "15954",
        "diff": "0.16",
        "clr": "growh"
      },
      "geometry": {
        "type": "Point",
        "coordinates": [134.25,46.8166666666667]
      }
    },
    {
      "type": "Feature",
      "properties": {
        "city": "Билибино",
        "year": "2018",
        "population": "5292",
        "diff": "-1.05",
        "clr": "decline"
      },
      "geometry": {
        "type": "Point",
        "coordinates": [166.45,68.05]
      }
    },
    {
      "type": "Feature",
      "properties": {
        "city": "Биробиджан",
        "year": "2018",
        "population": "73623",
        "diff": "-0.64",
        "clr": "decline"
      },
      "geometry": {
        "type": "Point",
        "coordinates": [132.933333333333,48.7833333333333]
      }
    },
    {
      "type": "Feature",
      "properties": {
        "city": "Бирск",
        "year": "2018",
        "population": "46330",
        "diff": "0",
        "clr": "zero"
      },
      "geometry": {
        "type": "Point",
        "coordinates": [55.5333333333333,55.4166666666667]
      }
    },
    {
      "type": "Feature",
      "properties": {
        "city": "Бирюсинск",
        "year": "2018",
        "population": "8477",
        "diff": "0",
        "clr": "zero"
      },
      "geometry": {
        "type": "Point",
        "coordinates": [97.8166666666667,55.95]
      }
    },
    {
      "type": "Feature",
      "properties": {
        "city": "Бирюч (город)",
        "year": "2018",
        "population": "7205",
        "diff": "0",
        "clr": "zero"
      },
      "geometry": {
        "type": "Point",
        "coordinates": [38.4,50.65]
      }
    },
    {
      "type": "Feature",
      "properties": {
        "city": "Благовещенск",
        "year": "2018",
        "population": "225091",
        "diff": "0.3",
        "clr": "growh"
      },
      "geometry": {
        "type": "Point",
        "coordinates": [127.533333333333,50.2577777777778]
      }
    },
    {
      "type": "Feature",
      "properties": {
        "city": "Благовещенск (Башкортостан)",
        "year": "2018",
        "population": "34955",
        "diff": "0",
        "clr": "zero"
      },
      "geometry": {
        "type": "Point",
        "coordinates": [55.9833333333333,55.0333333333333]
      }
    },
    {
      "type": "Feature",
      "properties": {
        "city": "Благодарный",
        "year": "2018",
        "population": "31100",
        "diff": "-0.62",
        "clr": "decline"
      },
      "geometry": {
        "type": "Point",
        "coordinates": [43.4166666666667,45.1027777777778]
      }
    },
    {
      "type": "Feature",
      "properties": {
        "city": "Бобров (город)",
        "year": "2018",
        "population": "20460",
        "diff": "-0.7",
        "clr": "decline"
      },
      "geometry": {
        "type": "Point",
        "coordinates": [40.0166666666667,51.0944444444444]
      }
    },
    {
      "type": "Feature",
      "properties": {
        "city": "Богданович (город)",
        "year": "2018",
        "population": "29241",
        "diff": "-0.24",
        "clr": "decline"
      },
      "geometry": {
        "type": "Point",
        "coordinates": [62.05,56.7833333333333]
      }
    },
    {
      "type": "Feature",
      "properties": {
        "city": "Богородицк",
        "year": "2018",
        "population": "31263",
        "diff": "0",
        "clr": "zero"
      },
      "geometry": {
        "type": "Point",
        "coordinates": [38.1333333333333,53.7666666666667]
      }
    },
    {
      "type": "Feature",
      "properties": {
        "city": "Богородск",
        "year": "2018",
        "population": "34388",
        "diff": "0",
        "clr": "zero"
      },
      "geometry": {
        "type": "Point",
        "coordinates": [43.5,56.0997222222222]
      }
    },
    {
      "type": "Feature",
      "properties": {
        "city": "Боготол",
        "year": "2018",
        "population": "20245",
        "diff": "0",
        "clr": "zero"
      },
      "geometry": {
        "type": "Point",
        "coordinates": [89.5166666666667,56.2]
      }
    },
    {
      "type": "Feature",
      "properties": {
        "city": "Богучар",
        "year": "2018",
        "population": "11270",
        "diff": "-0.22",
        "clr": "decline"
      },
      "geometry": {
        "type": "Point",
        "coordinates": [40.55,49.9333333333333]
      }
    },
    {
      "type": "Feature",
      "properties": {
        "city": "Бодайбо (город)",
        "year": "2018",
        "population": "13104",
        "diff": "0",
        "clr": "zero"
      },
      "geometry": {
        "type": "Point",
        "coordinates": [114.2,57.85]
      }
    },
    {
      "type": "Feature",
      "properties": {
        "city": "Бокситогорск",
        "year": "2018",
        "population": "15380",
        "diff": "-0.17",
        "clr": "decline"
      },
      "geometry": {
        "type": "Point",
        "coordinates": [33.8333333333333,59.4733333333333]
      }
    },
    {
      "type": "Feature",
      "properties": {
        "city": "Бологое",
        "year": "2018",
        "population": "21425",
        "diff": "0",
        "clr": "zero"
      },
      "geometry": {
        "type": "Point",
        "coordinates": [34.0666666666667,57.8708333333333]
      }
    },
    {
      "type": "Feature",
      "properties": {
        "city": "Болотное",
        "year": "2018",
        "population": "15629",
        "diff": "0",
        "clr": "zero"
      },
      "geometry": {
        "type": "Point",
        "coordinates": [84.4,55.6666666666667]
      }
    },
    {
      "type": "Feature",
      "properties": {
        "city": "Болохово",
        "year": "2018",
        "population": "9093",
        "diff": "0",
        "clr": "zero"
      },
      "geometry": {
        "type": "Point",
        "coordinates": [37.8166666666667,54.0833333333333]
      }
    },
    {
      "type": "Feature",
      "properties": {
        "city": "Болхов",
        "year": "2018",
        "population": "11097",
        "diff": "-0.51",
        "clr": "decline"
      },
      "geometry": {
        "type": "Point",
        "coordinates": [36,53.45]
      }
    },
    {
      "type": "Feature",
      "properties": {
        "city": "Большой Камень",
        "year": "2018",
        "population": "38042",
        "diff": "-1.17",
        "clr": "decline"
      },
      "geometry": {
        "type": "Point",
        "coordinates": [132.35,43.1166666666667]
      }
    },
    {
      "type": "Feature",
      "properties": {
        "city": "Бор (Нижегородская область)",
        "year": "2018",
        "population": "78385",
        "diff": "0",
        "clr": "zero"
      },
      "geometry": {
        "type": "Point",
        "coordinates": [44.05,56.3602777777778]
      }
    },
    {
      "type": "Feature",
      "properties": {
        "city": "Борзя",
        "year": "2018",
        "population": "28874",
        "diff": "0",
        "clr": "zero"
      },
      "geometry": {
        "type": "Point",
        "coordinates": [116.533333333333,50.3833333333333]
      }
    },
    {
      "type": "Feature",
      "properties": {
        "city": "Борисоглебск",
        "year": "2018",
        "population": "61765",
        "diff": "-1.44",
        "clr": "decline"
      },
      "geometry": {
        "type": "Point",
        "coordinates": [42.0833333333333,51.3666666666667]
      }
    },
    {
      "type": "Feature",
      "properties": {
        "city": "Боровичи",
        "year": "2018",
        "population": "50896",
        "diff": "0",
        "clr": "zero"
      },
      "geometry": {
        "type": "Point",
        "coordinates": [33.9,58.3869444444444]
      }
    },
    {
      "type": "Feature",
      "properties": {
        "city": "Боровск",
        "year": "2018",
        "population": "10966",
        "diff": "0",
        "clr": "zero"
      },
      "geometry": {
        "type": "Point",
        "coordinates": [36.4833333333333,55.2]
      }
    },
    {
      "type": "Feature",
      "properties": {
        "city": "Бородино (город)",
        "year": "2018",
        "population": "16249",
        "diff": "0",
        "clr": "zero"
      },
      "geometry": {
        "type": "Point",
        "coordinates": [94.9,55.9]
      }
    },
    {
      "type": "Feature",
      "properties": {
        "city": "Братск",
        "year": "2018",
        "population": "231602",
        "diff": "0",
        "clr": "zero"
      },
      "geometry": {
        "type": "Point",
        "coordinates": [101.6,56.1166666666667]
      }
    },
    {
      "type": "Feature",
      "properties": {
        "city": "Бронницы",
        "year": "2018",
        "population": "22567",
        "diff": "0.76",
        "clr": "growh"
      },
      "geometry": {
        "type": "Point",
        "coordinates": [38.25,55.4227777777778]
      }
    },
    {
      "type": "Feature",
      "properties": {
        "city": "Бугульма",
        "year": "2018",
        "population": "85476",
        "diff": "0",
        "clr": "zero"
      },
      "geometry": {
        "type": "Point",
        "coordinates": [52.7833333333333,54.5333333333333]
      }
    },
    {
      "type": "Feature",
      "properties": {
        "city": "Бугуруслан",
        "year": "2018",
        "population": "49585",
        "diff": "0",
        "clr": "zero"
      },
      "geometry": {
        "type": "Point",
        "coordinates": [52.4166666666667,53.6166666666667]
      }
    },
    {
      "type": "Feature",
      "properties": {
        "city": "Будённовск",
        "year": "2018",
        "population": "62495",
        "diff": "-0.35",
        "clr": "decline"
      },
      "geometry": {
        "type": "Point",
        "coordinates": [44.1333333333333,44.7833333333333]
      }
    },
    {
      "type": "Feature",
      "properties": {
        "city": "Бузулук",
        "year": "2018",
        "population": "86316",
        "diff": "0",
        "clr": "zero"
      },
      "geometry": {
        "type": "Point",
        "coordinates": [52.2666666666667,52.7666666666667]
      }
    },
    {
      "type": "Feature",
      "properties": {
        "city": "Буинск (Татарстан)",
        "year": "2018",
        "population": "20905",
        "diff": "0",
        "clr": "zero"
      },
      "geometry": {
        "type": "Point",
        "coordinates": [48.2833333333333,54.9666666666667]
      }
    },
    {
      "type": "Feature",
      "properties": {
        "city": "Буй (город)",
        "year": "2018",
        "population": "24011",
        "diff": "0",
        "clr": "zero"
      },
      "geometry": {
        "type": "Point",
        "coordinates": [41.5166666666667,58.4833333333333]
      }
    },
    {
      "type": "Feature",
      "properties": {
        "city": "Буйнакск",
        "year": "2018",
        "population": "65080",
        "diff": "0.84",
        "clr": "growh"
      },
      "geometry": {
        "type": "Point",
        "coordinates": [47.1166666666667,42.8166666666667]
      }
    },
    {
      "type": "Feature",
      "properties": {
        "city": "Бутурлиновка",
        "year": "2018",
        "population": "24319",
        "diff": "-1.42",
        "clr": "decline"
      },
      "geometry": {
        "type": "Point",
        "coordinates": [40.5833333333333,50.825]
      }
    },
    {
      "type": "Feature",
      "properties": {
        "city": "Валдай",
        "year": "2018",
        "population": "14379",
        "diff": "0",
        "clr": "zero"
      },
      "geometry": {
        "type": "Point",
        "coordinates": [33.25,57.9666666666667]
      }
    },
    {
      "type": "Feature",
      "properties": {
        "city": "Валуйки",
        "year": "2018",
        "population": "34679",
        "diff": "0",
        "clr": "zero"
      },
      "geometry": {
        "type": "Point",
        "coordinates": [38.1166666666667,50.1833333333333]
      }
    },
    {
      "type": "Feature",
      "properties": {
        "city": "Велиж",
        "year": "2018",
        "population": "6788",
        "diff": "-3.25",
        "clr": "decline"
      },
      "geometry": {
        "type": "Point",
        "coordinates": [31.2,55.6]
      }
    },
    {
      "type": "Feature",
      "properties": {
        "city": "Великие Луки",
        "year": "2018",
        "population": "91435",
        "diff": "-1.43",
        "clr": "decline"
      },
      "geometry": {
        "type": "Point",
        "coordinates": [30.5166666666667,56.35]
      }
    },
    {
      "type": "Feature",
      "properties": {
        "city": "Великий Устюг",
        "year": "2018",
        "population": "31606",
        "diff": "0",
        "clr": "zero"
      },
      "geometry": {
        "type": "Point",
        "coordinates": [46.3,60.7588888888889]
      }
    },
    {
      "type": "Feature",
      "properties": {
        "city": "Вельск",
        "year": "2018",
        "population": "22776",
        "diff": "0",
        "clr": "zero"
      },
      "geometry": {
        "type": "Point",
        "coordinates": [42.1,61.0666666666667]
      }
    },
    {
      "type": "Feature",
      "properties": {
        "city": "Венёв",
        "year": "2018",
        "population": "14211",
        "diff": "0",
        "clr": "zero"
      },
      "geometry": {
        "type": "Point",
        "coordinates": [38.2666666666667,54.35]
      }
    },
    {
      "type": "Feature",
      "properties": {
        "city": "Верещагино",
        "year": "2018",
        "population": "22194",
        "diff": "0",
        "clr": "zero"
      },
      "geometry": {
        "type": "Point",
        "coordinates": [54.65,58.0666666666667]
      }
    },
    {
      "type": "Feature",
      "properties": {
        "city": "Верея",
        "year": "2018",
        "population": "5090",
        "diff": "-0.64",
        "clr": "decline"
      },
      "geometry": {
        "type": "Point",
        "coordinates": [36.1833333333333,55.3333333333333]
      }
    },
    {
      "type": "Feature",
      "properties": {
        "city": "Верхнеуральск",
        "year": "2018",
        "population": "9312",
        "diff": "0",
        "clr": "zero"
      },
      "geometry": {
        "type": "Point",
        "coordinates": [59.2166666666667,53.8833333333333]
      }
    },
    {
      "type": "Feature",
      "properties": {
        "city": "Верхний Тагил",
        "year": "2018",
        "population": "11171",
        "diff": "0",
        "clr": "zero"
      },
      "geometry": {
        "type": "Point",
        "coordinates": [59.9333333333333,57.3833333333333]
      }
    },
    {
      "type": "Feature",
      "properties": {
        "city": "Верхний Уфалей",
        "year": "2018",
        "population": "27879",
        "diff": "0",
        "clr": "zero"
      },
      "geometry": {
        "type": "Point",
        "coordinates": [60.2333333333333,56.05]
      }
    },
    {
      "type": "Feature",
      "properties": {
        "city": "Верхняя Пышма",
        "year": "2018",
        "population": "70160",
        "diff": "1.51",
        "clr": "growh"
      },
      "geometry": {
        "type": "Point",
        "coordinates": [60.5833333333333,56.9666666666667]
      }
    },
    {
      "type": "Feature",
      "properties": {
        "city": "Верхняя Салда",
        "year": "2018",
        "population": "42166",
        "diff": "-1.33",
        "clr": "decline"
      },
      "geometry": {
        "type": "Point",
        "coordinates": [60.55,58.05]
      }
    },
    {
      "type": "Feature",
      "properties": {
        "city": "Верхняя Тура",
        "year": "2018",
        "population": "9039",
        "diff": "-0.98",
        "clr": "decline"
      },
      "geometry": {
        "type": "Point",
        "coordinates": [59.8166666666667,58.3574333333333]
      }
    },
    {
      "type": "Feature",
      "properties": {
        "city": "Верхотурье",
        "year": "2018",
        "population": "8651",
        "diff": "0",
        "clr": "zero"
      },
      "geometry": {
        "type": "Point",
        "coordinates": [60.8,58.8666666666667]
      }
    },
    {
      "type": "Feature",
      "properties": {
        "city": "Верхоянск",
        "year": "2018",
        "population": "1131",
        "diff": "0",
        "clr": "zero"
      },
      "geometry": {
        "type": "Point",
        "coordinates": [133.383333333333,67.55]
      }
    },
    {
      "type": "Feature",
      "properties": {
        "city": "Весьегонск",
        "year": "2018",
        "population": "6280",
        "diff": "0",
        "clr": "zero"
      },
      "geometry": {
        "type": "Point",
        "coordinates": [37.2666666666667,58.65]
      }
    },
    {
      "type": "Feature",
      "properties": {
        "city": "Ветлуга (город)",
        "year": "2018",
        "population": "8501",
        "diff": "0",
        "clr": "zero"
      },
      "geometry": {
        "type": "Point",
        "coordinates": [45.7666666666667,57.8555555555556]
      }
    },
    {
      "type": "Feature",
      "properties": {
        "city": "Видное",
        "year": "2018",
        "population": "66158",
        "diff": "1.67",
        "clr": "growh"
      },
      "geometry": {
        "type": "Point",
        "coordinates": [37.7,55.55]
      }
    },
    {
      "type": "Feature",
      "properties": {
        "city": "Вилюйск",
        "year": "2018",
        "population": "10975",
        "diff": "0",
        "clr": "zero"
      },
      "geometry": {
        "type": "Point",
        "coordinates": [121.616666666667,63.75]
      }
    },
    {
      "type": "Feature",
      "properties": {
        "city": "Вилючинск",
        "year": "2018",
        "population": "21973",
        "diff": "0.14",
        "clr": "growh"
      },
      "geometry": {
        "type": "Point",
        "coordinates": [158.4,52.9333333333333]
      }
    },
    {
      "type": "Feature",
      "properties": {
        "city": "Вихоревка",
        "year": "2018",
        "population": "21279",
        "diff": "0",
        "clr": "zero"
      },
      "geometry": {
        "type": "Point",
        "coordinates": [101.166666666667,56.1166666666667]
      }
    },
    {
      "type": "Feature",
      "properties": {
        "city": "Вичуга",
        "year": "2018",
        "population": "34868",
        "diff": "0",
        "clr": "zero"
      },
      "geometry": {
        "type": "Point",
        "coordinates": [41.9166666666667,57.2]
      }
    },
    {
      "type": "Feature",
      "properties": {
        "city": "Владивосток",
        "year": "2018",
        "population": "604901",
        "diff": "-0.28",
        "clr": "decline"
      },
      "geometry": {
        "type": "Point",
        "coordinates": [131.9,43.1166666666667]
      }
    },
    {
      "type": "Feature",
      "properties": {
        "city": "Владикавказ",
        "year": "2018",
        "population": "306258",
        "diff": "-0.23",
        "clr": "decline"
      },
      "geometry": {
        "type": "Point",
        "coordinates": [44.6833333333333,43.0166666666667]
      }
    },
    {
      "type": "Feature",
      "properties": {
        "city": "Волгоград",
        "year": "2018",
        "population": "1013533",
        "diff": "-0.2",
        "clr": "decline"
      },
      "geometry": {
        "type": "Point",
        "coordinates": [44.4666666666667,48.6991666666667]
      }
    },
    {
      "type": "Feature",
      "properties": {
        "city": "Волгодонск",
        "year": "2018",
        "population": "171471",
        "diff": "0",
        "clr": "zero"
      },
      "geometry": {
        "type": "Point",
        "coordinates": [42.2,47.54]
      }
    },
    {
      "type": "Feature",
      "properties": {
        "city": "Волгореченск",
        "year": "2018",
        "population": "16653",
        "diff": "0",
        "clr": "zero"
      },
      "geometry": {
        "type": "Point",
        "coordinates": [41.1666666666667,57.4333333333333]
      }
    },
    {
      "type": "Feature",
      "properties": {
        "city": "Волжск",
        "year": "2018",
        "population": "54519",
        "diff": "0",
        "clr": "zero"
      },
      "geometry": {
        "type": "Point",
        "coordinates": [48.35,55.8666666666667]
      }
    },
    {
      "type": "Feature",
      "properties": {
        "city": "Волжский",
        "year": "2018",
        "population": "326055",
        "diff": "0",
        "clr": "zero"
      },
      "geometry": {
        "type": "Point",
        "coordinates": [44.7666666666667,48.7833333333333]
      }
    },
    {
      "type": "Feature",
      "properties": {
        "city": "Вологда",
        "year": "2018",
        "population": "312420",
        "diff": "-0.19",
        "clr": "decline"
      },
      "geometry": {
        "type": "Point",
        "coordinates": [39.9,59.2166666666667]
      }
    },
    {
      "type": "Feature",
      "properties": {
        "city": "Володарск",
        "year": "2018",
        "population": "10021",
        "diff": "0",
        "clr": "zero"
      },
      "geometry": {
        "type": "Point",
        "coordinates": [43.2,56.2333333333333]
      }
    },
    {
      "type": "Feature",
      "properties": {
        "city": "Волоколамск",
        "year": "2018",
        "population": "19824",
        "diff": "-4.87",
        "clr": "decline"
      },
      "geometry": {
        "type": "Point",
        "coordinates": [35.95,56.0333333333333]
      }
    },
    {
      "type": "Feature",
      "properties": {
        "city": "Волосово",
        "year": "2018",
        "population": "11987",
        "diff": "-1.33",
        "clr": "decline"
      },
      "geometry": {
        "type": "Point",
        "coordinates": [29.4833333333333,59.45]
      }
    },
    {
      "type": "Feature",
      "properties": {
        "city": "Волхов (город)",
        "year": "2018",
        "population": "44868",
        "diff": "-0.72",
        "clr": "decline"
      },
      "geometry": {
        "type": "Point",
        "coordinates": [32.35,59.9166666666667]
      }
    },
    {
      "type": "Feature",
      "properties": {
        "city": "Волчанск (Свердловская область)",
        "year": "2018",
        "population": "8722",
        "diff": "-1.83",
        "clr": "decline"
      },
      "geometry": {
        "type": "Point",
        "coordinates": [60.05,59.9333333333333]
      }
    },
    {
      "type": "Feature",
      "properties": {
        "city": "Вольск",
        "year": "2018",
        "population": "63947",
        "diff": "0",
        "clr": "zero"
      },
      "geometry": {
        "type": "Point",
        "coordinates": [47.3833333333333,52.05]
      }
    },
    {
      "type": "Feature",
      "properties": {
        "city": "Воркута",
        "year": "2018",
        "population": "58133",
        "diff": "0",
        "clr": "zero"
      },
      "geometry": {
        "type": "Point",
        "coordinates": [64.0333333333333,67.5]
      }
    },
    {
      "type": "Feature",
      "properties": {
        "city": "Воронеж",
        "year": "2018",
        "population": "1047549",
        "diff": "0.75",
        "clr": "growh"
      },
      "geometry": {
        "type": "Point",
        "coordinates": [39.2,51.6716666666667]
      }
    },
    {
      "type": "Feature",
      "properties": {
        "city": "Ворсма",
        "year": "2018",
        "population": "10589",
        "diff": "0",
        "clr": "zero"
      },
      "geometry": {
        "type": "Point",
        "coordinates": [43.2666666666667,55.9833333333333]
      }
    },
    {
      "type": "Feature",
      "properties": {
        "city": "Воскресенск",
        "year": "2018",
        "population": "93565",
        "diff": "-0.48",
        "clr": "decline"
      },
      "geometry": {
        "type": "Point",
        "coordinates": [38.6666666666667,55.3233333333333]
      }
    },
    {
      "type": "Feature",
      "properties": {
        "city": "Воткинск",
        "year": "2018",
        "population": "98063",
        "diff": "0",
        "clr": "zero"
      },
      "geometry": {
        "type": "Point",
        "coordinates": [54,57.05]
      }
    },
    {
      "type": "Feature",
      "properties": {
        "city": "Всеволожск",
        "year": "2018",
        "population": "72864",
        "diff": "3.66",
        "clr": "growh"
      },
      "geometry": {
        "type": "Point",
        "coordinates": [30.65,60.0166666666667]
      }
    },
    {
      "type": "Feature",
      "properties": {
        "city": "Вуктыл",
        "year": "2018",
        "population": "10205",
        "diff": "0",
        "clr": "zero"
      },
      "geometry": {
        "type": "Point",
        "coordinates": [57.3166666666667,63.8666666666667]
      }
    },
    {
      "type": "Feature",
      "properties": {
        "city": "Выборг",
        "year": "2018",
        "population": "77400",
        "diff": "-1.35",
        "clr": "decline"
      },
      "geometry": {
        "type": "Point",
        "coordinates": [28.7333333333333,60.7091666666667]
      }
    },
    {
      "type": "Feature",
      "properties": {
        "city": "Выкса",
        "year": "2018",
        "population": "53406",
        "diff": "0",
        "clr": "zero"
      },
      "geometry": {
        "type": "Point",
        "coordinates": [42.1666666666667,55.3194444444444]
      }
    },
    {
      "type": "Feature",
      "properties": {
        "city": "Высоковск",
        "year": "2018",
        "population": "10586",
        "diff": "-0.8",
        "clr": "decline"
      },
      "geometry": {
        "type": "Point",
        "coordinates": [36.55,56.3166666666667]
      }
    },
    {
      "type": "Feature",
      "properties": {
        "city": "Высоцк",
        "year": "2018",
        "population": "1115",
        "diff": "-0.45",
        "clr": "decline"
      },
      "geometry": {
        "type": "Point",
        "coordinates": [28.5666666666667,60.6166666666667]
      }
    },
    {
      "type": "Feature",
      "properties": {
        "city": "Вытегра",
        "year": "2018",
        "population": "10232",
        "diff": "0",
        "clr": "zero"
      },
      "geometry": {
        "type": "Point",
        "coordinates": [36.45,61]
      }
    },
    {
      "type": "Feature",
      "properties": {
        "city": "Вышний Волочёк",
        "year": "2018",
        "population": "47732",
        "diff": "0",
        "clr": "zero"
      },
      "geometry": {
        "type": "Point",
        "coordinates": [34.5666666666667,57.5833333333333]
      }
    },
    {
      "type": "Feature",
      "properties": {
        "city": "Вяземский (город)",
        "year": "2018",
        "population": "12974",
        "diff": "-1.62",
        "clr": "decline"
      },
      "geometry": {
        "type": "Point",
        "coordinates": [134.75,47.5333333333333]
      }
    },
    {
      "type": "Feature",
      "properties": {
        "city": "Вязники",
        "year": "2018",
        "population": "36635",
        "diff": "0",
        "clr": "zero"
      },
      "geometry": {
        "type": "Point",
        "coordinates": [42.1166666666667,56.2433333333333]
      }
    },
    {
      "type": "Feature",
      "properties": {
        "city": "Вязьма",
        "year": "2018",
        "population": "52506",
        "diff": "-1.15",
        "clr": "decline"
      },
      "geometry": {
        "type": "Point",
        "coordinates": [34.2833333333333,55.2102777777778]
      }
    },
    {
      "type": "Feature",
      "properties": {
        "city": "Вятские Поляны",
        "year": "2018",
        "population": "32562",
        "diff": "-0.78",
        "clr": "decline"
      },
      "geometry": {
        "type": "Point",
        "coordinates": [51.0666666666667,56.2184138888889]
      }
    },
    {
      "type": "Feature",
      "properties": {
        "city": "Гаврилов Посад",
        "year": "2018",
        "population": "5715",
        "diff": "0",
        "clr": "zero"
      },
      "geometry": {
        "type": "Point",
        "coordinates": [40.1166666666667,56.5666666666667]
      }
    },
    {
      "type": "Feature",
      "properties": {
        "city": "Гаврилов-Ям",
        "year": "2018",
        "population": "17351",
        "diff": "0",
        "clr": "zero"
      },
      "geometry": {
        "type": "Point",
        "coordinates": [39.85,57.3]
      }
    },
    {
      "type": "Feature",
      "properties": {
        "city": "Гагарин (Смоленская область)",
        "year": "2018",
        "population": "29041",
        "diff": "-0.83",
        "clr": "decline"
      },
      "geometry": {
        "type": "Point",
        "coordinates": [35,55.55]
      }
    },
    {
      "type": "Feature",
      "properties": {
        "city": "Гаджиево",
        "year": "2018",
        "population": "12989",
        "diff": "0.66",
        "clr": "growh"
      },
      "geometry": {
        "type": "Point",
        "coordinates": [33.3166666666667,69.2552777777778]
      }
    },
    {
      "type": "Feature",
      "properties": {
        "city": "Гай (город)",
        "year": "2018",
        "population": "35255",
        "diff": "0",
        "clr": "zero"
      },
      "geometry": {
        "type": "Point",
        "coordinates": [58.45,51.4666666666667]
      }
    },
    {
      "type": "Feature",
      "properties": {
        "city": "Галич (Костромская область)",
        "year": "2018",
        "population": "16922",
        "diff": "0",
        "clr": "zero"
      },
      "geometry": {
        "type": "Point",
        "coordinates": [42.35,58.3833333333333]
      }
    },
    {
      "type": "Feature",
      "properties": {
        "city": "Гатчина",
        "year": "2018",
        "population": "94447",
        "diff": "-0.78",
        "clr": "decline"
      },
      "geometry": {
        "type": "Point",
        "coordinates": [30.1333333333333,59.5666666666667]
      }
    },
    {
      "type": "Feature",
      "properties": {
        "city": "Гвардейск",
        "year": "2018",
        "population": "13186",
        "diff": "0",
        "clr": "zero"
      },
      "geometry": {
        "type": "Point",
        "coordinates": [21.0666666666667,54.65]
      }
    },
    {
      "type": "Feature",
      "properties": {
        "city": "Гдов",
        "year": "2018",
        "population": "3460",
        "diff": "-2.32",
        "clr": "decline"
      },
      "geometry": {
        "type": "Point",
        "coordinates": [27.8166666666667,58.7333333333333]
      }
    },
    {
      "type": "Feature",
      "properties": {
        "city": "Геленджик",
        "year": "2018",
        "population": "76830",
        "diff": "2.59",
        "clr": "growh"
      },
      "geometry": {
        "type": "Point",
        "coordinates": [38.0666666666667,44.5608333333333]
      }
    },
    {
      "type": "Feature",
      "properties": {
        "city": "Георгиевск",
        "year": "2018",
        "population": "67714",
        "diff": "-1.91",
        "clr": "decline"
      },
      "geometry": {
        "type": "Point",
        "coordinates": [43.4666666666667,44.15]
      }
    },
    {
      "type": "Feature",
      "properties": {
        "city": "Глазов",
        "year": "2018",
        "population": "93628",
        "diff": "0",
        "clr": "zero"
      },
      "geometry": {
        "type": "Point",
        "coordinates": [52.6666666666667,58.1408333333333]
      }
    },
    {
      "type": "Feature",
      "properties": {
        "city": "Голицыно",
        "year": "2018",
        "population": "17651",
        "diff": "-0.05",
        "clr": "decline"
      },
      "geometry": {
        "type": "Point",
        "coordinates": [36.9833333333333,55.6147222222222]
      }
    },
    {
      "type": "Feature",
      "properties": {
        "city": "Горбатов (город)",
        "year": "2018",
        "population": "1982",
        "diff": "0",
        "clr": "zero"
      },
      "geometry": {
        "type": "Point",
        "coordinates": [43.0666666666667,56.1333333333333]
      }
    },
    {
      "type": "Feature",
      "properties": {
        "city": "Горно-Алтайск",
        "year": "2018",
        "population": "63214",
        "diff": "-0.13",
        "clr": "decline"
      },
      "geometry": {
        "type": "Point",
        "coordinates": [85.9666666666667,51.9666666666667]
      }
    },
    {
      "type": "Feature",
      "properties": {
        "city": "Горнозаводск (Пермский край)",
        "year": "2018",
        "population": "11477",
        "diff": "0",
        "clr": "zero"
      },
      "geometry": {
        "type": "Point",
        "coordinates": [58.3166666666667,58.3833333333333]
      }
    },
    {
      "type": "Feature",
      "properties": {
        "city": "Горняк (Алтайский край)",
        "year": "2018",
        "population": "12972",
        "diff": "0",
        "clr": "zero"
      },
      "geometry": {
        "type": "Point",
        "coordinates": [81.4666666666667,51]
      }
    },
    {
      "type": "Feature",
      "properties": {
        "city": "Городец",
        "year": "2018",
        "population": "30493",
        "diff": "0",
        "clr": "zero"
      },
      "geometry": {
        "type": "Point",
        "coordinates": [43.4666666666667,56.6502777777778]
      }
    },
    {
      "type": "Feature",
      "properties": {
        "city": "Городище (Пензенская область)",
        "year": "2018",
        "population": "7885",
        "diff": "-0.83",
        "clr": "decline"
      },
      "geometry": {
        "type": "Point",
        "coordinates": [45.7,53.2666666666667]
      }
    },
    {
      "type": "Feature",
      "properties": {
        "city": "Городовиковск",
        "year": "2018",
        "population": "8798",
        "diff": "0",
        "clr": "zero"
      },
      "geometry": {
        "type": "Point",
        "coordinates": [41.9333333333333,46.0833333333333]
      }
    },
    {
      "type": "Feature",
      "properties": {
        "city": "Гороховец",
        "year": "2018",
        "population": "12948",
        "diff": "0",
        "clr": "zero"
      },
      "geometry": {
        "type": "Point",
        "coordinates": [42.6833333333333,56.2027777777778]
      }
    },
    {
      "type": "Feature",
      "properties": {
        "city": "Горячий Ключ",
        "year": "2018",
        "population": "37475",
        "diff": "1.81",
        "clr": "growh"
      },
      "geometry": {
        "type": "Point",
        "coordinates": [39.1333333333333,44.6333333333333]
      }
    },
    {
      "type": "Feature",
      "properties": {
        "city": "Грайворон",
        "year": "2018",
        "population": "6404",
        "diff": "0",
        "clr": "zero"
      },
      "geometry": {
        "type": "Point",
        "coordinates": [35.6666666666667,50.4833333333333]
      }
    },
    {
      "type": "Feature",
      "properties": {
        "city": "Гремячинск",
        "year": "2018",
        "population": "9000",
        "diff": "0",
        "clr": "zero"
      },
      "geometry": {
        "type": "Point",
        "coordinates": [57.8333333333333,58.5666666666667]
      }
    },
    {
      "type": "Feature",
      "properties": {
        "city": "Грозный",
        "year": "2018",
        "population": "297137",
        "diff": "1.87",
        "clr": "growh"
      },
      "geometry": {
        "type": "Point",
        "coordinates": [45.7,43.3166666666667]
      }
    },
    {
      "type": "Feature",
      "properties": {
        "city": "Грязи",
        "year": "2018",
        "population": "46492",
        "diff": "-0.2",
        "clr": "decline"
      },
      "geometry": {
        "type": "Point",
        "coordinates": [39.9333333333333,52.5]
      }
    },
    {
      "type": "Feature",
      "properties": {
        "city": "Грязовец",
        "year": "2018",
        "population": "14916",
        "diff": "0",
        "clr": "zero"
      },
      "geometry": {
        "type": "Point",
        "coordinates": [40.25,58.8833333333333]
      }
    },
    {
      "type": "Feature",
      "properties": {
        "city": "Губаха",
        "year": "2018",
        "population": "20289",
        "diff": "0",
        "clr": "zero"
      },
      "geometry": {
        "type": "Point",
        "coordinates": [57.5833333333333,58.8666666666667]
      }
    },
    {
      "type": "Feature",
      "properties": {
        "city": "Губкин (город)",
        "year": "2018",
        "population": "86999",
        "diff": "0",
        "clr": "zero"
      },
      "geometry": {
        "type": "Point",
        "coordinates": [37.55,51.2833333333333]
      }
    },
    {
      "type": "Feature",
      "properties": {
        "city": "Губкинский",
        "year": "2018",
        "population": "27238",
        "diff": "0",
        "clr": "zero"
      },
      "geometry": {
        "type": "Point",
        "coordinates": [76.5,64.4333333333333]
      }
    },
    {
      "type": "Feature",
      "properties": {
        "city": "Гудермес",
        "year": "2018",
        "population": "52908",
        "diff": "2.19",
        "clr": "growh"
      },
      "geometry": {
        "type": "Point",
        "coordinates": [46.0833333333333,43.3552777777778]
      }
    },
    {
      "type": "Feature",
      "properties": {
        "city": "Гуково",
        "year": "2018",
        "population": "66332",
        "diff": "0",
        "clr": "zero"
      },
      "geometry": {
        "type": "Point",
        "coordinates": [39.9333333333333,48.05]
      }
    },
    {
      "type": "Feature",
      "properties": {
        "city": "Гулькевичи",
        "year": "2018",
        "population": "34236",
        "diff": "-0.36",
        "clr": "decline"
      },
      "geometry": {
        "type": "Point",
        "coordinates": [40.6833333333333,45.3602777777778]
      }
    },
    {
      "type": "Feature",
      "properties": {
        "city": "Гурьевск (Калининградская область)",
        "year": "2018",
        "population": "16311",
        "diff": "0",
        "clr": "zero"
      },
      "geometry": {
        "type": "Point",
        "coordinates": [20.6,54.7666666666667]
      }
    },
    {
      "type": "Feature",
      "properties": {
        "city": "Гурьевск (Кемеровская область)",
        "year": "2018",
        "population": "23089",
        "diff": "0",
        "clr": "zero"
      },
      "geometry": {
        "type": "Point",
        "coordinates": [85.9333333333333,54.2833333333333]
      }
    },
    {
      "type": "Feature",
      "properties": {
        "city": "Гусев (город)",
        "year": "2018",
        "population": "28257",
        "diff": "0",
        "clr": "zero"
      },
      "geometry": {
        "type": "Point",
        "coordinates": [22.2,54.5833333333333]
      }
    },
    {
      "type": "Feature",
      "properties": {
        "city": "Гусиноозёрск",
        "year": "2018",
        "population": "23280",
        "diff": "0",
        "clr": "zero"
      },
      "geometry": {
        "type": "Point",
        "coordinates": [106.516666666667,51.2855555555556]
      }
    },
    {
      "type": "Feature",
      "properties": {
        "city": "Гусь-Хрустальный",
        "year": "2018",
        "population": "55421",
        "diff": "0",
        "clr": "zero"
      },
      "geometry": {
        "type": "Point",
        "coordinates": [40.65,55.6166666666667]
      }
    },
    {
      "type": "Feature",
      "properties": {
        "city": "Давлеканово",
        "year": "2018",
        "population": "23774",
        "diff": "0",
        "clr": "zero"
      },
      "geometry": {
        "type": "Point",
        "coordinates": [55.0333333333333,54.2166666666667]
      }
    },
    {
      "type": "Feature",
      "properties": {
        "city": "Дагестанские Огни",
        "year": "2018",
        "population": "29401",
        "diff": "0.56",
        "clr": "growh"
      },
      "geometry": {
        "type": "Point",
        "coordinates": [48.2,42.1166666666667]
      }
    },
    {
      "type": "Feature",
      "properties": {
        "city": "Далматово",
        "year": "2018",
        "population": "12772",
        "diff": "0",
        "clr": "zero"
      },
      "geometry": {
        "type": "Point",
        "coordinates": [62.9166666666667,56.2666666666667]
      }
    },
    {
      "type": "Feature",
      "properties": {
        "city": "Дальнегорск",
        "year": "2018",
        "population": "34694",
        "diff": "-0.97",
        "clr": "decline"
      },
      "geometry": {
        "type": "Point",
        "coordinates": [135.616666666667,44.5666666666667]
      }
    },
    {
      "type": "Feature",
      "properties": {
        "city": "Дальнереченск",
        "year": "2018",
        "population": "25786",
        "diff": "-1.28",
        "clr": "decline"
      },
      "geometry": {
        "type": "Point",
        "coordinates": [133.733333333333,45.9333333333333]
      }
    },
    {
      "type": "Feature",
      "properties": {
        "city": "Данилов (город)",
        "year": "2018",
        "population": "14868",
        "diff": "0",
        "clr": "zero"
      },
      "geometry": {
        "type": "Point",
        "coordinates": [40.1833333333333,58.1833333333333]
      }
    },
    {
      "type": "Feature",
      "properties": {
        "city": "Данков",
        "year": "2018",
        "population": "19017",
        "diff": "-0.54",
        "clr": "decline"
      },
      "geometry": {
        "type": "Point",
        "coordinates": [39.15,53.25]
      }
    },
    {
      "type": "Feature",
      "properties": {
        "city": "Дегтярск",
        "year": "2018",
        "population": "16141",
        "diff": "0",
        "clr": "zero"
      },
      "geometry": {
        "type": "Point",
        "coordinates": [60.1,56.7]
      }
    },
    {
      "type": "Feature",
      "properties": {
        "city": "Дедовск",
        "year": "2018",
        "population": "29738",
        "diff": "0.61",
        "clr": "growh"
      },
      "geometry": {
        "type": "Point",
        "coordinates": [37.1333333333333,55.8666666666667]
      }
    },
    {
      "type": "Feature",
      "properties": {
        "city": "Демидов (город)",
        "year": "2018",
        "population": "6213",
        "diff": "-1.21",
        "clr": "decline"
      },
      "geometry": {
        "type": "Point",
        "coordinates": [31.5166666666667,55.2666666666667]
      }
    },
    {
      "type": "Feature",
      "properties": {
        "city": "Дербент",
        "year": "2018",
        "population": "123720",
        "diff": "0.45",
        "clr": "growh"
      },
      "geometry": {
        "type": "Point",
        "coordinates": [48.2833333333333,42.0691666666667]
      }
    },
    {
      "type": "Feature",
      "properties": {
        "city": "Десногорск",
        "year": "2018",
        "population": "27771",
        "diff": "-1.18",
        "clr": "decline"
      },
      "geometry": {
        "type": "Point",
        "coordinates": [33.2833333333333,54.1530833333333]
      }
    },
    {
      "type": "Feature",
      "properties": {
        "city": "Джанкой",
        "year": "2018",
        "population": "38669",
        "diff": "-0.12",
        "clr": "decline"
      },
      "geometry": {
        "type": "Point",
        "coordinates": [34.3833333333333,45.7086111111111]
      }
    },
    {
      "type": "Feature",
      "properties": {
        "city": "Дзержинск (Нижегородская область)",
        "year": "2018",
        "population": "231797",
        "diff": "0",
        "clr": "zero"
      },
      "geometry": {
        "type": "Point",
        "coordinates": [43.45,56.2333333333333]
      }
    },
    {
      "type": "Feature",
      "properties": {
        "city": "Дзержинский (город)",
        "year": "2018",
        "population": "55669",
        "diff": "1.61",
        "clr": "growh"
      },
      "geometry": {
        "type": "Point",
        "coordinates": [37.85,55.6333333333333]
      }
    },
    {
      "type": "Feature",
      "properties": {
        "city": "Дивногорск",
        "year": "2018",
        "population": "29117",
        "diff": "0",
        "clr": "zero"
      },
      "geometry": {
        "type": "Point",
        "coordinates": [92.3833333333333,55.95]
      }
    },
    {
      "type": "Feature",
      "properties": {
        "city": "Дигора",
        "year": "2018",
        "population": "10075",
        "diff": "-0.59",
        "clr": "decline"
      },
      "geometry": {
        "type": "Point",
        "coordinates": [44.15,43.15]
      }
    },
    {
      "type": "Feature",
      "properties": {
        "city": "Димитровград (Россия)",
        "year": "2018",
        "population": "116055",
        "diff": "0",
        "clr": "zero"
      },
      "geometry": {
        "type": "Point",
        "coordinates": [49.5833333333333,54.2333333333333]
      }
    },
    {
      "type": "Feature",
      "properties": {
        "city": "Дмитриев (город)",
        "year": "2018",
        "population": "6619",
        "diff": "0",
        "clr": "zero"
      },
      "geometry": {
        "type": "Point",
        "coordinates": [35.0666666666667,52.1288888888889]
      }
    },
    {
      "type": "Feature",
      "properties": {
        "city": "Дмитров",
        "year": "2018",
        "population": "68044",
        "diff": "0.8",
        "clr": "growh"
      },
      "geometry": {
        "type": "Point",
        "coordinates": [37.5166666666667,56.3466666666667]
      }
    },
    {
      "type": "Feature",
      "properties": {
        "city": "Дмитровск",
        "year": "2018",
        "population": "5105",
        "diff": "-1.47",
        "clr": "decline"
      },
      "geometry": {
        "type": "Point",
        "coordinates": [35.15,52.5]
      }
    },
    {
      "type": "Feature",
      "properties": {
        "city": "Дно (город)",
        "year": "2018",
        "population": "7683",
        "diff": "-2.19",
        "clr": "decline"
      },
      "geometry": {
        "type": "Point",
        "coordinates": [29.9666666666667,57.8333333333333]
      }
    },
    {
      "type": "Feature",
      "properties": {
        "city": "Добрянка",
        "year": "2018",
        "population": "33083",
        "diff": "0",
        "clr": "zero"
      },
      "geometry": {
        "type": "Point",
        "coordinates": [56.4166666666667,58.45]
      }
    },
    {
      "type": "Feature",
      "properties": {
        "city": "Долгопрудный",
        "year": "2018",
        "population": "108861",
        "diff": "4.44",
        "clr": "growh"
      },
      "geometry": {
        "type": "Point",
        "coordinates": [37.5,55.9333333333333]
      }
    },
    {
      "type": "Feature",
      "properties": {
        "city": "Долинск",
        "year": "2018",
        "population": "11765",
        "diff": "0.49",
        "clr": "growh"
      },
      "geometry": {
        "type": "Point",
        "coordinates": [142.8,47.3166666666667]
      }
    },
    {
      "type": "Feature",
      "properties": {
        "city": "Домодедово (город)",
        "year": "2018",
        "population": "127850",
        "diff": "2.87",
        "clr": "growh"
      },
      "geometry": {
        "type": "Point",
        "coordinates": [37.75,55.4438888888889]
      }
    },
    {
      "type": "Feature",
      "properties": {
        "city": "Донецк (Россия)",
        "year": "2018",
        "population": "48428",
        "diff": "0",
        "clr": "zero"
      },
      "geometry": {
        "type": "Point",
        "coordinates": [39.9333333333333,48.3369194444444]
      }
    },
    {
      "type": "Feature",
      "properties": {
        "city": "Донской (город)",
        "year": "2018",
        "population": "63842",
        "diff": "0",
        "clr": "zero"
      },
      "geometry": {
        "type": "Point",
        "coordinates": [38.3166666666667,53.9666666666667]
      }
    },
    {
      "type": "Feature",
      "properties": {
        "city": "Дорогобуж",
        "year": "2018",
        "population": "9793",
        "diff": "-1.74",
        "clr": "decline"
      },
      "geometry": {
        "type": "Point",
        "coordinates": [33.3,54.92]
      }
    },
    {
      "type": "Feature",
      "properties": {
        "city": "Дрезна",
        "year": "2018",
        "population": "11480",
        "diff": "-1.36",
        "clr": "decline"
      },
      "geometry": {
        "type": "Point",
        "coordinates": [38.8333333333333,55.7444444444444]
      }
    },
    {
      "type": "Feature",
      "properties": {
        "city": "Дубна",
        "year": "2018",
        "population": "75144",
        "diff": "0.17",
        "clr": "growh"
      },
      "geometry": {
        "type": "Point",
        "coordinates": [37.15,56.75]
      }
    },
    {
      "type": "Feature",
      "properties": {
        "city": "Дубовка",
        "year": "2018",
        "population": "14165",
        "diff": "0",
        "clr": "zero"
      },
      "geometry": {
        "type": "Point",
        "coordinates": [44.8333333333333,49.05]
      }
    },
    {
      "type": "Feature",
      "properties": {
        "city": "Дудинка",
        "year": "2018",
        "population": "21513",
        "diff": "0",
        "clr": "zero"
      },
      "geometry": {
        "type": "Point",
        "coordinates": [86.1833333333333,69.4]
      }
    },
    {
      "type": "Feature",
      "properties": {
        "city": "Духовщина",
        "year": "2018",
        "population": "4103",
        "diff": "-1.94",
        "clr": "decline"
      },
      "geometry": {
        "type": "Point",
        "coordinates": [32.4166666666667,55.2]
      }
    },
    {
      "type": "Feature",
      "properties": {
        "city": "Дюртюли",
        "year": "2018",
        "population": "30858",
        "diff": "0",
        "clr": "zero"
      },
      "geometry": {
        "type": "Point",
        "coordinates": [54.8666666666667,55.4833333333333]
      }
    },
    {
      "type": "Feature",
      "properties": {
        "city": "Дятьково",
        "year": "2018",
        "population": "26775",
        "diff": "-0.94",
        "clr": "decline"
      },
      "geometry": {
        "type": "Point",
        "coordinates": [34.3333333333333,53.6]
      }
    },
    {
      "type": "Feature",
      "properties": {
        "city": "Евпатория",
        "year": "2018",
        "population": "106158",
        "diff": "0",
        "clr": "zero"
      },
      "geometry": {
        "type": "Point",
        "coordinates": [33.35,45.2]
      }
    },
    {
      "type": "Feature",
      "properties": {
        "city": "Егорьевск",
        "year": "2018",
        "population": "73766",
        "diff": "0.06",
        "clr": "growh"
      },
      "geometry": {
        "type": "Point",
        "coordinates": [39.0333333333333,55.3833333333333]
      }
    },
    {
      "type": "Feature",
      "properties": {
        "city": "Ейск",
        "year": "2018",
        "population": "83665",
        "diff": "-0.7",
        "clr": "decline"
      },
      "geometry": {
        "type": "Point",
        "coordinates": [38.2666666666667,46.7105555555556]
      }
    },
    {
      "type": "Feature",
      "properties": {
        "city": "Екатеринбург",
        "year": "2018",
        "population": "1468833",
        "diff": "0.89",
        "clr": "growh"
      },
      "geometry": {
        "type": "Point",
        "coordinates": [60.5833333333333,56.8333333333333]
      }
    },
    {
      "type": "Feature",
      "properties": {
        "city": "Елабуга",
        "year": "2018",
        "population": "73817",
        "diff": "0",
        "clr": "zero"
      },
      "geometry": {
        "type": "Point",
        "coordinates": [52.0333333333333,55.7666666666667]
      }
    },
    {
      "type": "Feature",
      "properties": {
        "city": "Елец",
        "year": "2018",
        "population": "104349",
        "diff": "-0.64",
        "clr": "decline"
      },
      "geometry": {
        "type": "Point",
        "coordinates": [38.4666666666667,52.6166666666667]
      }
    },
    {
      "type": "Feature",
      "properties": {
        "city": "Елизово",
        "year": "2018",
        "population": "39216",
        "diff": "1.15",
        "clr": "growh"
      },
      "geometry": {
        "type": "Point",
        "coordinates": [158.383333333333,53.1833333333333]
      }
    },
    {
      "type": "Feature",
      "properties": {
        "city": "Ельня",
        "year": "2018",
        "population": "8993",
        "diff": "-1.91",
        "clr": "decline"
      },
      "geometry": {
        "type": "Point",
        "coordinates": [33.1666666666667,54.5666666666667]
      }
    },
    {
      "type": "Feature",
      "properties": {
        "city": "Еманжелинск",
        "year": "2018",
        "population": "29077",
        "diff": "0",
        "clr": "zero"
      },
      "geometry": {
        "type": "Point",
        "coordinates": [61.3166666666667,54.75]
      }
    },
    {
      "type": "Feature",
      "properties": {
        "city": "Емва",
        "year": "2018",
        "population": "12906",
        "diff": "0",
        "clr": "zero"
      },
      "geometry": {
        "type": "Point",
        "coordinates": [50.85,62.5833333333333]
      }
    },
    {
      "type": "Feature",
      "properties": {
        "city": "Енисейск",
        "year": "2018",
        "population": "17999",
        "diff": "0",
        "clr": "zero"
      },
      "geometry": {
        "type": "Point",
        "coordinates": [92.1333333333333,58.4666666666667]
      }
    },
    {
      "type": "Feature",
      "properties": {
        "city": "Ермолино (Калужская область)",
        "year": "2018",
        "population": "10158",
        "diff": "0",
        "clr": "zero"
      },
      "geometry": {
        "type": "Point",
        "coordinates": [36.5666666666667,55.2055555555556]
      }
    },
    {
      "type": "Feature",
      "properties": {
        "city": "Ершов (город)",
        "year": "2018",
        "population": "19993",
        "diff": "0",
        "clr": "zero"
      },
      "geometry": {
        "type": "Point",
        "coordinates": [48.2833333333333,51.35]
      }
    },
    {
      "type": "Feature",
      "properties": {
        "city": "Ессентуки",
        "year": "2018",
        "population": "108679",
        "diff": "1.47",
        "clr": "growh"
      },
      "geometry": {
        "type": "Point",
        "coordinates": [42.85,44.0430555555556]
      }
    },
    {
      "type": "Feature",
      "properties": {
        "city": "Ефремов (город)",
        "year": "2018",
        "population": "35505",
        "diff": "0",
        "clr": "zero"
      },
      "geometry": {
        "type": "Point",
        "coordinates": [38.0666666666667,53.1491666666667]
      }
    },
    {
      "type": "Feature",
      "properties": {
        "city": "Железноводск",
        "year": "2018",
        "population": "24912",
        "diff": "-1.15",
        "clr": "decline"
      },
      "geometry": {
        "type": "Point",
        "coordinates": [43.0333333333333,44.1333333333333]
      }
    },
    {
      "type": "Feature",
      "properties": {
        "city": "Железногорск (Красноярский край)",
        "year": "2018",
        "population": "84144",
        "diff": "0",
        "clr": "zero"
      },
      "geometry": {
        "type": "Point",
        "coordinates": [93.5333333333333,56.25]
      }
    },
    {
      "type": "Feature",
      "properties": {
        "city": "Железногорск (Курская область)",
        "year": "2018",
        "population": "100740",
        "diff": "0.07",
        "clr": "growh"
      },
      "geometry": {
        "type": "Point",
        "coordinates": [35.35,52.3391666666667]
      }
    },
    {
      "type": "Feature",
      "properties": {
        "city": "Железногорск-Илимский",
        "year": "2018",
        "population": "23643",
        "diff": "0",
        "clr": "zero"
      },
      "geometry": {
        "type": "Point",
        "coordinates": [104.116666666667,56.5833333333333]
      }
    },
    {
      "type": "Feature",
      "properties": {
        "city": "Жердевка",
        "year": "2018",
        "population": "14214",
        "diff": "-0.57",
        "clr": "decline"
      },
      "geometry": {
        "type": "Point",
        "coordinates": [41.4666666666667,51.8333333333333]
      }
    },
    {
      "type": "Feature",
      "properties": {
        "city": "Жигулёвск",
        "year": "2018",
        "population": "54343",
        "diff": "0",
        "clr": "zero"
      },
      "geometry": {
        "type": "Point",
        "coordinates": [49.5,53.4]
      }
    },
    {
      "type": "Feature",
      "properties": {
        "city": "Жиздра (город)",
        "year": "2018",
        "population": "5489",
        "diff": "0",
        "clr": "zero"
      },
      "geometry": {
        "type": "Point",
        "coordinates": [34.7333333333333,53.7502777777778]
      }
    },
    {
      "type": "Feature",
      "properties": {
        "city": "Жирновск",
        "year": "2018",
        "population": "15872",
        "diff": "0",
        "clr": "zero"
      },
      "geometry": {
        "type": "Point",
        "coordinates": [44.7666666666667,50.9802777777778]
      }
    },
    {
      "type": "Feature",
      "properties": {
        "city": "Жуков (город)",
        "year": "2018",
        "population": "13251",
        "diff": "0",
        "clr": "zero"
      },
      "geometry": {
        "type": "Point",
        "coordinates": [36.75,55.0333333333333]
      }
    },
    {
      "type": "Feature",
      "properties": {
        "city": "Жуковка (город)",
        "year": "2018",
        "population": "16878",
        "diff": "-0.44",
        "clr": "decline"
      },
      "geometry": {
        "type": "Point",
        "coordinates": [33.7333333333333,53.5333333333333]
      }
    },
    {
      "type": "Feature",
      "properties": {
        "city": "Жуковский (город)",
        "year": "2018",
        "population": "108187",
        "diff": "-0.73",
        "clr": "decline"
      },
      "geometry": {
        "type": "Point",
        "coordinates": [38.1,55.6011111111111]
      }
    },
    {
      "type": "Feature",
      "properties": {
        "city": "Завитинск",
        "year": "2018",
        "population": "10721",
        "diff": "-0.2",
        "clr": "decline"
      },
      "geometry": {
        "type": "Point",
        "coordinates": [129.433333333333,50.1166666666667]
      }
    },
    {
      "type": "Feature",
      "properties": {
        "city": "Заводоуковск",
        "year": "2018",
        "population": "26006",
        "diff": "0",
        "clr": "zero"
      },
      "geometry": {
        "type": "Point",
        "coordinates": [66.55,56.5]
      }
    },
    {
      "type": "Feature",
      "properties": {
        "city": "Заволжск",
        "year": "2018",
        "population": "10384",
        "diff": "0",
        "clr": "zero"
      },
      "geometry": {
        "type": "Point",
        "coordinates": [42.1333333333333,57.4833333333333]
      }
    },
    {
      "type": "Feature",
      "properties": {
        "city": "Заволжье (город)",
        "year": "2018",
        "population": "38527",
        "diff": "0",
        "clr": "zero"
      },
      "geometry": {
        "type": "Point",
        "coordinates": [43.3833333333333,56.6425]
      }
    },
    {
      "type": "Feature",
      "properties": {
        "city": "Задонск",
        "year": "2018",
        "population": "9614",
        "diff": "-0.28",
        "clr": "decline"
      },
      "geometry": {
        "type": "Point",
        "coordinates": [38.9166666666667,52.3833333333333]
      }
    },
    {
      "type": "Feature",
      "properties": {
        "city": "Заинск",
        "year": "2018",
        "population": "40635",
        "diff": "0",
        "clr": "zero"
      },
      "geometry": {
        "type": "Point",
        "coordinates": [52.0166666666667,55.3]
      }
    },
    {
      "type": "Feature",
      "properties": {
        "city": "Закаменск",
        "year": "2018",
        "population": "11249",
        "diff": "0",
        "clr": "zero"
      },
      "geometry": {
        "type": "Point",
        "coordinates": [103.283333333333,50.3833333333333]
      }
    },
    {
      "type": "Feature",
      "properties": {
        "city": "Заозёрный",
        "year": "2018",
        "population": "10286",
        "diff": "0",
        "clr": "zero"
      },
      "geometry": {
        "type": "Point",
        "coordinates": [94.7,55.9666666666667]
      }
    },
    {
      "type": "Feature",
      "properties": {
        "city": "Заозёрск",
        "year": "2018",
        "population": "9915",
        "diff": "-1.04",
        "clr": "decline"
      },
      "geometry": {
        "type": "Point",
        "coordinates": [32.45,69.4]
      }
    },
    {
      "type": "Feature",
      "properties": {
        "city": "Западная Двина (город)",
        "year": "2018",
        "population": "8249",
        "diff": "0",
        "clr": "zero"
      },
      "geometry": {
        "type": "Point",
        "coordinates": [32.0833333333333,56.2666666666667]
      }
    },
    {
      "type": "Feature",
      "properties": {
        "city": "Заполярный",
        "year": "2018",
        "population": "15037",
        "diff": "-1.03",
        "clr": "decline"
      },
      "geometry": {
        "type": "Point",
        "coordinates": [30.8,69.4166666666667]
      }
    },
    {
      "type": "Feature",
      "properties": {
        "city": "Зарайск",
        "year": "2018",
        "population": "23120",
        "diff": "-1.06",
        "clr": "decline"
      },
      "geometry": {
        "type": "Point",
        "coordinates": [38.8833333333333,54.7652777777778]
      }
    },
    {
      "type": "Feature",
      "properties": {
        "city": "Заречный (Пензенская область)",
        "year": "2018",
        "population": "64982",
        "diff": "0",
        "clr": "zero"
      },
      "geometry": {
        "type": "Point",
        "coordinates": [45.1666666666667,53.2]
      }
    },
    {
      "type": "Feature",
      "properties": {
        "city": "Заречный (Свердловская область)",
        "year": "2018",
        "population": "27595",
        "diff": "-0.08",
        "clr": "decline"
      },
      "geometry": {
        "type": "Point",
        "coordinates": [61.3166666666667,56.8166666666667]
      }
    },
    {
      "type": "Feature",
      "properties": {
        "city": "Заринск",
        "year": "2018",
        "population": "46597",
        "diff": "-0.5",
        "clr": "decline"
      },
      "geometry": {
        "type": "Point",
        "coordinates": [84.9166666666667,53.7]
      }
    },
    {
      "type": "Feature",
      "properties": {
        "city": "Звенигово",
        "year": "2018",
        "population": "11379",
        "diff": "0",
        "clr": "zero"
      },
      "geometry": {
        "type": "Point",
        "coordinates": [48.0166666666667,55.9666666666667]
      }
    },
    {
      "type": "Feature",
      "properties": {
        "city": "Звенигород",
        "year": "2018",
        "population": "22513",
        "diff": "2.57",
        "clr": "growh"
      },
      "geometry": {
        "type": "Point",
        "coordinates": [36.85,55.7333333333333]
      }
    },
    {
      "type": "Feature",
      "properties": {
        "city": "Зверево",
        "year": "2018",
        "population": "19456",
        "diff": "0",
        "clr": "zero"
      },
      "geometry": {
        "type": "Point",
        "coordinates": [40.1166666666667,48.0166666666667]
      }
    },
    {
      "type": "Feature",
      "properties": {
        "city": "Зеленогорск (Красноярский край)",
        "year": "2018",
        "population": "62466",
        "diff": "0",
        "clr": "zero"
      },
      "geometry": {
        "type": "Point",
        "coordinates": [94.5833333333333,56.1]
      }
    },
    {
      "type": "Feature",
      "properties": {
        "city": "Зеленоградск",
        "year": "2018",
        "population": "15493",
        "diff": "0",
        "clr": "zero"
      },
      "geometry": {
        "type": "Point",
        "coordinates": [20.4833333333333,54.95]
      }
    },
    {
      "type": "Feature",
      "properties": {
        "city": "Зеленодольск",
        "year": "2018",
        "population": "99235",
        "diff": "0",
        "clr": "zero"
      },
      "geometry": {
        "type": "Point",
        "coordinates": [48.5166666666667,55.85]
      }
    },
    {
      "type": "Feature",
      "properties": {
        "city": "Зеленокумск",
        "year": "2018",
        "population": "35501",
        "diff": "-0.41",
        "clr": "decline"
      },
      "geometry": {
        "type": "Point",
        "coordinates": [43.8666666666667,44.4069444444444]
      }
    },
    {
      "type": "Feature",
      "properties": {
        "city": "Зерноград",
        "year": "2018",
        "population": "24886",
        "diff": "0",
        "clr": "zero"
      },
      "geometry": {
        "type": "Point",
        "coordinates": [40.3,46.846525]
      }
    },
    {
      "type": "Feature",
      "properties": {
        "city": "Зея (город)",
        "year": "2018",
        "population": "23270",
        "diff": "-1",
        "clr": "decline"
      },
      "geometry": {
        "type": "Point",
        "coordinates": [127.25,53.7333333333333]
      }
    },
    {
      "type": "Feature",
      "properties": {
        "city": "Зима (город)",
        "year": "2018",
        "population": "31229",
        "diff": "0",
        "clr": "zero"
      },
      "geometry": {
        "type": "Point",
        "coordinates": [102.05,53.9166666666667]
      }
    },
    {
      "type": "Feature",
      "properties": {
        "city": "Златоуст",
        "year": "2018",
        "population": "167978",
        "diff": "0",
        "clr": "zero"
      },
      "geometry": {
        "type": "Point",
        "coordinates": [59.6666666666667,55.1666666666667]
      }
    },
    {
      "type": "Feature",
      "properties": {
        "city": "Злынка",
        "year": "2018",
        "population": "5369",
        "diff": "-1.67",
        "clr": "decline"
      },
      "geometry": {
        "type": "Point",
        "coordinates": [31.7333333333333,52.4333333333333]
      }
    },
    {
      "type": "Feature",
      "properties": {
        "city": "Змеиногорск",
        "year": "2018",
        "population": "10533",
        "diff": "-0.4",
        "clr": "decline"
      },
      "geometry": {
        "type": "Point",
        "coordinates": [82.1666666666667,51.1666666666667]
      }
    },
    {
      "type": "Feature",
      "properties": {
        "city": "Знаменск (Астраханская область)",
        "year": "2018",
        "population": "26934",
        "diff": "0",
        "clr": "zero"
      },
      "geometry": {
        "type": "Point",
        "coordinates": [45.75,48.5833333333333]
      }
    },
    {
      "type": "Feature",
      "properties": {
        "city": "Зубцов",
        "year": "2018",
        "population": "6373",
        "diff": "0",
        "clr": "zero"
      },
      "geometry": {
        "type": "Point",
        "coordinates": [34.5833333333333,56.1666666666667]
      }
    },
    {
      "type": "Feature",
      "properties": {
        "city": "Зуевка",
        "year": "2018",
        "population": "10447",
        "diff": "-1.4",
        "clr": "decline"
      },
      "geometry": {
        "type": "Point",
        "coordinates": [51.1166666666667,58.4033333333333]
      }
    },
    {
      "type": "Feature",
      "properties": {
        "city": "Ивангород",
        "year": "2018",
        "population": "10453",
        "diff": "-0.82",
        "clr": "decline"
      },
      "geometry": {
        "type": "Point",
        "coordinates": [28.2,59.375]
      }
    },
    {
      "type": "Feature",
      "properties": {
        "city": "Иваново",
        "year": "2018",
        "population": "406113",
        "diff": "-0.2",
        "clr": "decline"
      },
      "geometry": {
        "type": "Point",
        "coordinates": [40.9666666666667,56.995]
      }
    },
    {
      "type": "Feature",
      "properties": {
        "city": "Ивантеевка",
        "year": "2018",
        "population": "76612",
        "diff": "2.84",
        "clr": "growh"
      },
      "geometry": {
        "type": "Point",
        "coordinates": [37.9166666666667,55.97]
      }
    },
    {
      "type": "Feature",
      "properties": {
        "city": "Ивдель",
        "year": "2018",
        "population": "16090",
        "diff": "0",
        "clr": "zero"
      },
      "geometry": {
        "type": "Point",
        "coordinates": [60.4333333333333,60.6833333333333]
      }
    },
    {
      "type": "Feature",
      "properties": {
        "city": "Игарка",
        "year": "2018",
        "population": "4754",
        "diff": "0",
        "clr": "zero"
      },
      "geometry": {
        "type": "Point",
        "coordinates": [86.5666666666667,67.4666666666667]
      }
    },
    {
      "type": "Feature",
      "properties": {
        "city": "Ижевск",
        "year": "2018",
        "population": "648213",
        "diff": "0.3",
        "clr": "growh"
      },
      "geometry": {
        "type": "Point",
        "coordinates": [53.2166666666667,56.85]
      }
    },