city,year,population,diff,lat,long,clr
Абаза (город),2018,15335,-1.65,52.65,90.08333333333333,decline
Абакан,2018,184168,1.35,53.7166666666667,91.41666666666667,growh
Абдулино,2018,19222,0,53.6833333333333,53.65,zero
Абинск,2018,38176,1.13,44.8666666666667,38.166666666666664,growh
Агидель,2018,15281,0,55.9,53.93333333333333,zero
Агрыз,2018,19704,0,56.5166666666667,52.983333333333334,zero
Адыгейск,2018,12745,0.35,44.8844444444444,39.18333333333333,growh
Азнакаево,2018,34863,0,54.85,53.06666666666667,zero
Азов,2018,81335,0,47.1,39.416666666666664,zero
Ак-Довурак,2018,13578,0,51.1666666666667,90.6,zero
Аксай (Ростовская область),2018,44828,0,47.2666666666667,39.86666666666667,zero
Алагир,2018,20043,-0.45,43.0416666666667,44.2,decline
Алапаевск,2018,37526,-0.34,57.85,61.7,decline
Алатырь,2018,35298,0,54.85,46.583333333333336,zero
Алдан (город),2018,20700,0,58.6,125.38333333333334,zero
Алейск,2018,28972,0.82,52.5,82.78333333333333,growh
Александров (город),2018,59328,0,56.3936111111111,38.7,zero
Александровск (Пермский край),2018,12841,0,59.1666666666667,57.583333333333336,zero
Александровск-Сахалинский,2018,9504,-0.86,50.9,142.15,decline
"Алексеевка (город, Белгородская область)",2018,38447,0,50.63,38.68333333333333,zero
Алексин,2018,58329,0,54.5,37.06666666666667,zero
Алзамай,2018,6040,0,55.55,98.66666666666667,zero
Альметьевск,2018,154262,0,54.9,52.3,zero
Амурск,2018,39431,-1.68,50.2166666666667,136.9,decline
Анадырь,2018,15604,0.88,64.7333333333333,177.51666666666668,growh
Анапа,2018,75865,0.65,44.8944444444444,37.31666666666667,growh
Ангарск,2018,226374,0,52.5666666666667,103.91666666666667,zero
Андреаполь,2018,7259,0,56.65,32.266666666666666,zero
Анжеро-Судженск,2018,71787,0,56.0833333333333,86.03333333333333,zero
Анива (город),2018,9445,0.16,46.7166666666667,142.51666666666668,growh
Апатиты,2018,55713,-1.14,67.5675,33.38333333333333,decline
Апрелевка,2018,27860,4.7,55.5333333333333,37.05,growh
Апшеронск,2018,40016,-0.55,44.4608333333333,39.733333333333334,decline
Арамиль,2018,15162,0,56.7,60.833333333333336,zero
Аргун (город),2018,37373,2.43,43.2944444444444,45.88333333333333,growh
Ардатов (Мордовия),2018,8734,0,54.85,46.233333333333334,zero
Ардон (город),2018,19412,0.21,43.1727777777778,44.28333333333333,growh
Арзамас,2018,104547,0,55.3833333333333,43.8,zero
Аркадак,2018,11986,0,51.9333333333333,43.5,zero
Армавир (Россия),2018,190709,-0.08,45,41.11666666666667,decline
Армянск,2018,21754,-0.92,46.1069444444444,33.68333333333333,decline
Арсеньев (город),2018,52471,-0.56,44.1666666666667,133.26666666666668,decline
Арск,2018,20419,0,56.0905555555556,49.86666666666667,zero
Артём (город),2018,106692,-0.04,43.35,132.18333333333334,decline
Артёмовск (Россия),2018,1705,0,54.35,93.43333333333334,zero
Артёмовский,2018,30778,-0.5,57.3363888888889,61.88333333333333,decline
Архангельск,2018,349742,-0.5,64.55,40.53333333333333,decline
Асбест (город),2018,64091,-0.89,57.0102777777778,61.45,decline
Асино,2018,24351,-0.77,57,86.15,decline
Астрахань,2018,533925,0.27,46.3333333333333,48.03333333333333,growh
Аткарск,2018,25384,0,51.8666666666667,45,zero
Ахтубинск,2018,37883,0,48.2833333333333,46.166666666666664,zero
Ачинск,2018,105264,0,56.2666666666667,90.5,zero
Аша,2018,29946,0,55,57.25,zero
Бабаево,2018,11493,0,59.3833333333333,35.95,zero
Бабушкин (Бурятия),2018,4542,0,51.7166666666667,105.86666666666666,zero
Бавлы,2018,22258,0,54.4,53.25,zero
Багратионовск,2018,6409,0,54.3833333333333,20.633333333333333,zero
Байкальск,2018,12738,0,51.5172222222222,104.15,zero
Баймак,2018,17529,0,52.5833333333333,58.31666666666667,zero
Бакал,2018,19590,0,54.9333333333333,58.8,zero
Баксан (город),2018,38192,0.37,43.6833333333333,43.53333333333333,growh
Балабаново,2018,25752,0,55.1833333333333,36.65,zero
Балаково,2018,191260,0,52.0333333333333,47.78333333333333,zero
Балахна,2018,49364,0,56.4808333333333,43.53333333333333,zero
Балашиха,2018,468221,3.87,55.8,37.95,growh
Балашов (город),2018,77391,0,51.55,43.166666666666664,zero
Балей,2018,11370,0,51.5769444444444,116.63333333333334,zero
Балтийск,2018,33181,0,54.65,19.916666666666668,zero
Барабинск,2018,29122,0,55.35,78.35,zero
Барнаул,2018,632372,-0.15,53.3473611111111,83.76666666666667,decline
Барыш (город),2018,16147,0,53.65,47.11666666666667,zero
Батайск,2018,124705,0,47.1333333333333,39.75,zero
Бахчисарай,2018,26874,-1.15,44.7527777777778,33.85,decline
Бежецк,2018,21728,0,57.7833333333333,36.7,zero
Белая Калитва,2018,40831,0,48.1747222222222,40.78333333333333,zero
Белая Холуница,2018,10406,-1.06,58.8333333333333,50.85,decline
Белгород,2018,391554,0.11,50.6,36.6,growh
Белебей,2018,59123,0,54.1,54.13333333333333,zero
Белёв,2018,13362,0,53.8,36.13333333333333,zero
Белинский (город),2018,7694,-1.9,52.9666666666667,43.416666666666664,decline
Белово,2018,72843,0,54.4166666666667,86.3,zero
Белогорск (Амурская область),2018,66183,-0.39,50.9166666666667,128.48333333333332,decline
Белогорск (Крым),2018,16391,-0.31,45.0544444444444,34.6,decline
Белокуриха,2018,15179,-0.56,52,84.98333333333333,decline
Беломорск,2018,9678,-1.86,64.5166666666667,34.766666666666666,decline
Белорецк,2018,65801,0,53.9666666666667,58.4,zero
Белореченск,2018,52082,-0.35,44.7666666666667,39.86666666666667,decline
Белоусово (город),2018,9288,0,55.0916666666667,36.666666666666664,zero
Белоярский (город),2018,20142,0,63.7166666666667,66.66666666666667,zero
Белый (город),2018,3268,0,55.8333333333333,32.93333333333333,zero
Бердск,2018,103290,0,54.75,83.1,zero
Березники,2018,145115,0,59.4166666666667,56.78333333333333,zero
Берёзовский (Кемеровская область),2018,46859,0,55.6666666666667,86.25,zero
Берёзовский (Свердловская область),2018,57892,1.22,56.9,60.8,growh
Беслан,2018,37029,0.01,43.1888888888889,44.516666666666666,growh
Бийск,2018,201914,-0.59,52.5166666666667,85.16666666666667,decline
Бикин (город),2018,15954,0.16,46.8166666666667,134.25,growh
Билибино,2018,5292,-1.05,68.05,166.45,decline
Биробиджан,2018,73623,-0.64,48.7833333333333,132.93333333333334,decline
Бирск,2018,46330,0,55.4166666666667,55.53333333333333,zero
Бирюсинск,2018,8477,0,55.95,97.81666666666666,zero
Бирюч (город),2018,7205,0,50.65,38.4,zero
Благовещенск,2018,225091,0.3,50.2577777777778,127.53333333333333,growh
Благовещенск (Башкортостан),2018,34955,0,55.0333333333333,55.983333333333334,zero
Благодарный,2018,31100,-0.62,45.1027777777778,43.416666666666664,decline
Бобров (город),2018,20460,-0.7,51.0944444444444,40.016666666666666,decline
Богданович (город),2018,29241,-0.24,56.7833333333333,62.05,decline
Богородицк,2018,31263,0,53.7666666666667,38.13333333333333,zero
Богородск,2018,34388,0,56.0997222222222,43.5,zero
Боготол,2018,20245,0,56.2,89.51666666666667,zero
Богучар,2018,11270,-0.22,49.9333333333333,40.55,decline
Бодайбо (город),2018,13104,0,57.85,114.2,zero
Бокситогорск,2018,15380,-0.17,59.4733333333333,33.833333333333336,decline
Бологое,2018,21425,0,57.8708333333333,34.06666666666667,zero
Болотное,2018,15629,0,55.6666666666667,84.4,zero
Болохово,2018,9093,0,54.0833333333333,37.81666666666667,zero
Болхов,2018,11097,-0.51,53.45,36,decline
Большой Камень,2018,38042,-1.17,43.1166666666667,132.35,decline
Бор (Нижегородская область),2018,78385,0,56.3602777777778,44.05,zero
Борзя,2018,28874,0,50.3833333333333,116.53333333333333,zero
Борисоглебск,2018,61765,-1.44,51.3666666666667,42.083333333333336,decline
Боровичи,2018,50896,0,58.3869444444444,33.9,zero
Боровск,2018,10966,0,55.2,36.483333333333334,zero
Бородино (город),2018,16249,0,55.9,94.9,zero
Братск,2018,231602,0,56.1166666666667,101.6,zero
Бронницы,2018,22567,0.76,55.4227777777778,38.25,growh
Бугульма,2018,85476,0,54.5333333333333,52.78333333333333,zero
Бугуруслан,2018,49585,0,53.6166666666667,52.416666666666664,zero
Будённовск,2018,62495,-0.35,44.7833333333333,44.13333333333333,decline
Бузулук,2018,86316,0,52.7666666666667,52.266666666666666,zero
Буинск (Татарстан),2018,20905,0,54.9666666666667,48.28333333333333,zero
Буй (город),2018,24011,0,58.4833333333333,41.516666666666666,zero
Буйнакск,2018,65080,0.84,42.8166666666667,47.11666666666667,growh
Бутурлиновка,2018,24319,-1.42,50.825,40.583333333333336,decline
Валдай,2018,14379,0,57.9666666666667,33.25,zero
Валуйки,2018,34679,0,50.1833333333333,38.11666666666667,zero
Велиж,2018,6788,-3.25,55.6,31.2,decline
Великие Луки,2018,91435,-1.43,56.35,30.516666666666666,decline
Великий Устюг,2018,31606,0,60.7588888888889,46.3,zero
Вельск,2018,22776,0,61.0666666666667,42.1,zero
Венёв,2018,14211,0,54.35,38.266666666666666,zero
Верещагино,2018,22194,0,58.0666666666667,54.65,zero
Верея,2018,5090,-0.64,55.3333333333333,36.18333333333333,decline
Верхнеуральск,2018,9312,0,53.8833333333333,59.21666666666667,zero
Верхний Тагил,2018,11171,0,57.3833333333333,59.93333333333333,zero
Верхний Уфалей,2018,27879,0,56.05,60.233333333333334,zero
Верхняя Пышма,2018,70160,1.51,56.9666666666667,60.583333333333336,growh
Верхняя Салда,2018,42166,-1.33,58.05,60.55,decline
Верхняя Тура,2018,9039,-0.98,58.3574333333333,59.81666666666667,decline
Верхотурье,2018,8651,0,58.8666666666667,60.8,zero
Верхоянск,2018,1131,0,67.55,133.38333333333333,zero
Весьегонск,2018,6280,0,58.65,37.266666666666666,zero
Ветлуга (город),2018,8501,0,57.8555555555556,45.766666666666666,zero
Видное,2018,66158,1.67,55.55,37.7,growh
Вилюйск,2018,10975,0,63.75,121.61666666666666,zero
Вилючинск,2018,21973,0.14,52.9333333333333,158.4,growh
Вихоревка,2018,21279,0,56.1166666666667,101.16666666666667,zero
Вичуга,2018,34868,0,57.2,41.916666666666664,zero
Владивосток,2018,604901,-0.28,43.1166666666667,131.9,decline
Владикавказ,2018,306258,-0.23,43.0166666666667,44.68333333333333,decline
Волгоград,2018,1013533,-0.2,48.6991666666667,44.46666666666667,decline
Волгодонск,2018,171471,0,47.54,42.2,zero
Волгореченск,2018,16653,0,57.4333333333333,41.166666666666664,zero
Волжск,2018,54519,0,55.8666666666667,48.35,zero
Волжский,2018,326055,0,48.7833333333333,44.766666666666666,zero
Вологда,2018,312420,-0.19,59.2166666666667,39.9,decline
Володарск,2018,10021,0,56.2333333333333,43.2,zero
Волоколамск,2018,19824,-4.87,56.0333333333333,35.95,decline
Волосово,2018,11987,-1.33,59.45,29.483333333333334,decline
Волхов (город),2018,44868,-0.72,59.9166666666667,32.35,decline
Волчанск (Свердловская область),2018,8722,-1.83,59.9333333333333,60.05,decline
Вольск,2018,63947,0,52.05,47.38333333333333,zero
Воркута,2018,58133,0,67.5,64.03333333333333,zero
Воронеж,2018,1047549,0.75,51.6716666666667,39.2,growh
Ворсма,2018,10589,0,55.9833333333333,43.266666666666666,zero
Воскресенск,2018,93565,-0.48,55.3233333333333,38.666666666666664,decline
Воткинск,2018,98063,0,57.05,54,zero
Всеволожск,2018,72864,3.66,60.0166666666667,30.65,growh
Вуктыл,2018,10205,0,63.8666666666667,57.31666666666667,zero
Выборг,2018,77400,-1.35,60.7091666666667,28.733333333333334,decline
Выкса,2018,53406,0,55.3194444444444,42.166666666666664,zero
Высоковск,2018,10586,-0.8,56.3166666666667,36.55,decline
Высоцк,2018,1115,-0.45,60.6166666666667,28.566666666666666,decline
Вытегра,2018,10232,0,61,36.45,zero
Вышний Волочёк,2018,47732,0,57.5833333333333,34.56666666666667,zero
Вяземский (город),2018,12974,-1.62,47.5333333333333,134.75,decline
Вязники,2018,36635,0,56.2433333333333,42.11666666666667,zero
Вязьма,2018,52506,-1.15,55.2102777777778,34.28333333333333,decline
Вятские Поляны,2018,32562,-0.78,56.2184138888889,51.06666666666667,decline
Гаврилов Посад,2018,5715,0,56.5666666666667,40.11666666666667,zero
Гаврилов-Ям,2018,17351,0,57.3,39.85,zero
Гагарин (Смоленская область),2018,29041,-0.83,55.55,35,decline
Гаджиево,2018,12989,0.66,69.2552777777778,33.31666666666667,growh
Гай (город),2018,35255,0,51.4666666666667,58.45,zero
Галич (Костромская область),2018,16922,0,58.3833333333333,42.35,zero
Гатчина,2018,94447,-0.78,59.5666666666667,30.133333333333333,decline
Гвардейск,2018,13186,0,54.65,21.066666666666666,zero
Гдов,2018,3460,-2.32,58.7333333333333,27.816666666666666,decline
Геленджик,2018,76830,2.59,44.5608333333333,38.06666666666667,growh
Георгиевск,2018,67714,-1.91,44.15,43.46666666666667,decline
Глазов,2018,93628,0,58.1408333333333,52.666666666666664,zero
Голицыно,2018,17651,-0.05,55.6147222222222,36.983333333333334,decline
Горбатов (город),2018,1982,0,56.1333333333333,43.06666666666667,zero
Горно-Алтайск,2018,63214,-0.13,51.9666666666667,85.96666666666667,decline
Горнозаводск (Пермский край),2018,11477,0,58.3833333333333,58.31666666666667,zero
Горняк (Алтайский край),2018,12972,0,51,81.46666666666667,zero
Городец,2018,30493,0,56.6502777777778,43.46666666666667,zero
Городище (Пензенская область),2018,7885,-0.83,53.2666666666667,45.7,decline
Городовиковск,2018,8798,0,46.0833333333333,41.93333333333333,zero
Гороховец,2018,12948,0,56.2027777777778,42.68333333333333,zero
Горячий Ключ,2018,37475,1.81,44.6333333333333,39.13333333333333,growh
Грайворон,2018,6404,0,50.4833333333333,35.666666666666664,zero
Гремячинск,2018,9000,0,58.5666666666667,57.833333333333336,zero
Грозный,2018,297137,1.87,43.3166666666667,45.7,growh
Грязи,2018,46492,-0.2,52.5,39.93333333333333,decline
Грязовец,2018,14916,0,58.8833333333333,40.25,zero
Губаха,2018,20289,0,58.8666666666667,57.583333333333336,zero
Губкин (город),2018,86999,0,51.2833333333333,37.55,zero
Губкинский,2018,27238,0,64.4333333333333,76.5,zero
Гудермес,2018,52908,2.19,43.3552777777778,46.083333333333336,growh
Гуково,2018,66332,0,48.05,39.93333333333333,zero
Гулькевичи,2018,34236,-0.36,45.3602777777778,40.68333333333333,decline
Гурьевск (Калининградская область),2018,16311,0,54.7666666666667,20.6,zero
Гурьевск (Кемеровская область),2018,23089,0,54.2833333333333,85.93333333333334,zero
Гусев (город),2018,28257,0,54.5833333333333,22.2,zero
Гусиноозёрск,2018,23280,0,51.2855555555556,106.51666666666667,zero
Гусь-Хрустальный,2018,55421,0,55.6166666666667,40.65,zero
Давлеканово,2018,23774,0,54.2166666666667,55.03333333333333,zero
Дагестанские Огни,2018,29401,0.56,42.1166666666667,48.2,growh
Далматово,2018,12772,0,56.2666666666667,62.916666666666664,zero
Дальнегорск,2018,34694,-0.97,44.5666666666667,135.61666666666667,decline
Дальнереченск,2018,25786,-1.28,45.9333333333333,133.73333333333332,decline
Данилов (город),2018,14868,0,58.1833333333333,40.18333333333333,zero
Данков,2018,19017,-0.54,53.25,39.15,decline
Дегтярск,2018,16141,0,56.7,60.1,zero
Дедовск,2018,29738,0.61,55.8666666666667,37.13333333333333,growh
Демидов (город),2018,6213,-1.21,55.2666666666667,31.516666666666666,decline
Дербент,2018,123720,0.45,42.0691666666667,48.28333333333333,growh
Десногорск,2018,27771,-1.18,54.1530833333333,33.28333333333333,decline
Джанкой,2018,38669,-0.12,45.7086111111111,34.38333333333333,decline
Дзержинск (Нижегородская область),2018,231797,0,56.2333333333333,43.45,zero
Дзержинский (город),2018,55669,1.61,55.6333333333333,37.85,growh
Дивногорск,2018,29117,0,55.95,92.38333333333334,zero
Дигора,2018,10075,-0.59,43.15,44.15,decline
Димитровград (Россия),2018,116055,0,54.2333333333333,49.583333333333336,zero
Дмитриев (город),2018,6619,0,52.1288888888889,35.06666666666667,zero
Дмитров,2018,68044,0.8,56.3466666666667,37.516666666666666,growh
Дмитровск,2018,5105,-1.47,52.5,35.15,decline
Дно (город),2018,7683,-2.19,57.8333333333333,29.966666666666665,decline
Добрянка,2018,33083,0,58.45,56.416666666666664,zero
Долгопрудный,2018,108861,4.44,55.9333333333333,37.5,growh
Долинск,2018,11765,0.49,47.3166666666667,142.8,growh
Домодедово (город),2018,127850,2.87,55.4438888888889,37.75,growh
Донецк (Россия),2018,48428,0,48.3369194444444,39.93333333333333,zero
Донской (город),2018,63842,0,53.9666666666667,38.31666666666667,zero
Дорогобуж,2018,9793,-1.74,54.92,33.3,decline
Дрезна,2018,11480,-1.36,55.7444444444444,38.833333333333336,decline
Дубна,2018,75144,0.17,56.75,37.15,growh
Дубовка,2018,14165,0,49.05,44.833333333333336,zero
Дудинка,2018,21513,0,69.4,86.18333333333334,zero
Духовщина,2018,4103,-1.94,55.2,32.416666666666664,decline
Дюртюли,2018,30858,0,55.4833333333333,54.86666666666667,zero
Дятьково,2018,26775,-0.94,53.6,34.333333333333336,decline
Евпатория,2018,106158,0,45.2,33.35,zero
Егорьевск,2018,73766,0.06,55.3833333333333,39.03333333333333,growh
Ейск,2018,83665,-0.7,46.7105555555556,38.266666666666666,decline
Екатеринбург,2018,1468833,0.89,56.8333333333333,60.583333333333336,growh
Елабуга,2018,73817,0,55.7666666666667,52.03333333333333,zero
Елец,2018,104349,-0.64,52.6166666666667,38.46666666666667,decline
Елизово,2018,39216,1.15,53.1833333333333,158.38333333333333,growh
Ельня,2018,8993,-1.91,54.5666666666667,33.166666666666664,decline
Еманжелинск,2018,29077,0,54.75,61.31666666666667,zero
Емва,2018,12906,0,62.5833333333333,50.85,zero
Енисейск,2018,17999,0,58.4666666666667,92.13333333333334,zero
Ермолино (Калужская область),2018,10158,0,55.2055555555556,36.56666666666667,zero
Ершов (город),2018,19993,0,51.35,48.28333333333333,zero
Ессентуки,2018,108679,1.47,44.0430555555556,42.85,growh
Ефремов (город),2018,35505,0,53.1491666666667,38.06666666666667,zero
Железноводск,2018,24912,-1.15,44.1333333333333,43.03333333333333,decline
Железногорск (Красноярский край),2018,84144,0,56.25,93.53333333333333,zero
Железногорск (Курская область),2018,100740,0.07,52.3391666666667,35.35,growh
Железногорск-Илимский,2018,23643,0,56.5833333333333,104.11666666666666,zero
Жердевка,2018,14214,-0.57,51.8333333333333,41.46666666666667,decline
Жигулёвск,2018,54343,0,53.4,49.5,zero
Жиздра (город),2018,5489,0,53.7502777777778,34.733333333333334,zero
Жирновск,2018,15872,0,50.9802777777778,44.766666666666666,zero
Жуков (город),2018,13251,0,55.0333333333333,36.75,zero
Жуковка (город),2018,16878,-0.44,53.5333333333333,33.733333333333334,decline
Жуковский (город),2018,108187,-0.73,55.6011111111111,38.1,decline
Завитинск,2018,10721,-0.2,50.1166666666667,129.43333333333334,decline
Заводоуковск,2018,26006,0,56.5,66.55,zero
Заволжск,2018,10384,0,57.4833333333333,42.13333333333333,zero
Заволжье (город),2018,38527,0,56.6425,43.38333333333333,zero
Задонск,2018,9614,-0.28,52.3833333333333,38.916666666666664,decline
Заинск,2018,40635,0,55.3,52.016666666666666,zero
Закаменск,2018,11249,0,50.3833333333333,103.28333333333333,zero
Заозёрный,2018,10286,0,55.9666666666667,94.7,zero
Заозёрск,2018,9915,-1.04,69.4,32.45,decline
Западная Двина (город),2018,8249,0,56.2666666666667,32.083333333333336,zero
Заполярный,2018,15037,-1.03,69.4166666666667,30.8,decline
Зарайск,2018,23120,-1.06,54.7652777777778,38.88333333333333,decline
Заречный (Пензенская область),2018,64982,0,53.2,45.166666666666664,zero
Заречный (Свердловская область),2018,27595,-0.08,56.8166666666667,61.31666666666667,decline
Заринск,2018,46597,-0.5,53.7,84.91666666666667,decline
Звенигово,2018,11379,0,55.9666666666667,48.016666666666666,zero
Звенигород,2018,22513,2.57,55.7333333333333,36.85,growh
Зверево,2018,19456,0,48.0166666666667,40.11666666666667,zero
Зеленогорск (Красноярский край),2018,62466,0,56.1,94.58333333333333,zero
Зеленоградск,2018,15493,0,54.95,20.483333333333334,zero
Зеленодольск,2018,99235,0,55.85,48.516666666666666,zero
Зеленокумск,2018,35501,-0.41,44.4069444444444,43.86666666666667,decline
Зерноград,2018,24886,0,46.846525,40.3,zero
Зея (город),2018,23270,-1,53.7333333333333,127.25,decline
Зима (город),2018,31229,0,53.9166666666667,102.05,zero
Златоуст,2018,167978,0,55.1666666666667,59.666666666666664,zero
Злынка,2018,5369,-1.67,52.4333333333333,31.733333333333334,decline
Змеиногорск,2018,10533,-0.4,51.1666666666667,82.16666666666667,decline
Знаменск (Астраханская область),2018,26934,0,48.5833333333333,45.75,zero
Зубцов,2018,6373,0,56.1666666666667,34.583333333333336,zero
Зуевка,2018,10447,-1.4,58.4033333333333,51.11666666666667,decline
Ивангород,2018,10453,-0.82,59.375,28.2,decline
Иваново,2018,406113,-0.2,56.995,40.96666666666667,decline
Ивантеевка,2018,76612,2.84,55.97,37.916666666666664,growh
Ивдель,2018,16090,0,60.6833333333333,60.43333333333333,zero
Игарка,2018,4754,0,67.4666666666667,86.56666666666666,zero
Ижевск,2018,648213,0.3,56.85,53.21666666666667,growh
Избербаш,2018,58690,0.93,42.5666666666667,47.86666666666667,growh
Изобильный,2018,38100,-0.43,45.3666666666667,41.71666666666667,decline
Иланский,2018,15013,0,56.2333333333333,96.06666666666666,zero
Инза,2018,17714,0,53.85,46.35,zero
Иннополис,2018,102,0,55.7636111111111,48.733333333333334,zero
Инсар (город),2018,8169,0,53.8666666666667,44.36666666666667,zero
Инта,2018,26271,0,66.0398111111111,60.11666666666667,zero
Ипатово,2018,24021,-1.51,45.7166666666667,42.9,decline
Ирбит,2018,37280,-0.44,57.6666666666667,63.06666666666667,decline
Иркутск,2018,623869,0.02,52.2833333333333,104.3,growh
Исилькуль,2018,23151,0,54.9088888888889,71.25,zero
Искитим,2018,57032,0,54.6333333333333,83.3,zero
Истра (город),2018,34309,-1.38,55.9166666666667,36.86666666666667,decline
Ишим,2018,65259,0,56.1166666666667,69.5,zero
Ишимбай,2018,65422,0,53.4544444444444,56.03333333333333,zero
Йошкар-Ола,2018,268272,0.6,56.6327777777778,47.88333333333333,growh
Кадников,2018,4588,0,59.5,40.333333333333336,zero
Казань,2018,1243500,0.94,55.7908333333333,49.1,growh
Калач (город),2018,18834,-1.06,50.4258333333333,41,decline
Калач-на-Дону,2018,24237,0,48.6833333333333,43.53333333333333,zero
Калачинск,2018,22781,0,55.05,74.58333333333333,zero
Калининград,2018,475056,1.66,54.7166666666667,20.5,growh
Калининск,2018,15841,0,51.5,44.45,zero
Калтан,2018,20947,0,53.5166666666667,87.26666666666667,zero
Калуга,2018,340851,-0.3,54.5333333333333,36.266666666666666,decline
Калязин,2018,13025,0,57.2333333333333,37.85,zero
Камбарка,2018,10477,0,56.2666666666667,54.2,zero
"Каменка (город, Россия)",2018,35929,-1.74,53.1833333333333,44.05,decline
Каменногорск,2018,6595,-1.51,60.95,29.133333333333333,decline
Каменск-Уральский,2018,168997,-0.55,56.4,61.93333333333333,decline
Каменск-Шахтинский,2018,89657,0,48.3166666666667,40.266666666666666,zero
Камень-на-Оби,2018,40795,-1.26,53.7919444444444,81.33333333333333,decline
Камешково,2018,12711,0,56.3491666666667,40.983333333333334,zero
Камызяк,2018,16077,0,46.1155555555556,48.06666666666667,zero
Камышин,2018,111775,0,50.0833333333333,45.4,zero
Камышлов,2018,26444,-0.35,56.85,62.71666666666667,decline
Канаш,2018,45501,0,55.5069444444444,47.483333333333334,zero
Кандалакша,2018,31329,-2.2,67.1569444444444,32.4,decline
Канск,2018,90231,0,56.2,95.7,zero
Карабаново,2018,14817,0,56.3088888888889,38.7,zero
Карабаш,2018,11178,0,55.4833333333333,60.2,zero
Карабулак (город),2018,40308,1.75,43.3066666666667,44.9,growh
Карасук (город),2018,27196,0,53.7333333333333,78.03333333333333,zero
Карачаевск,2018,21067,0.13,43.7697222222222,41.9,growh
Карачев,2018,17716,-1.47,53.1166666666667,34.983333333333334,decline
Каргат (город),2018,9519,0,55.2,80.28333333333333,zero
Каргополь,2018,10055,0,61.5,38.93333333333333,zero
Карпинск,2018,26571,-1.43,59.7666666666667,60,decline
Карталы,2018,28577,0,53.05,60.65,zero
Касимов,2018,30696,0,54.95,41.38333333333333,zero
Касли,2018,16263,0,55.8833333333333,60.75,zero
Каспийск,2018,116340,2.64,42.8833333333333,47.63333333333333,growh
Катав-Ивановск,2018,16088,0,54.75,58.2,zero
Катайск,2018,12585,0,56.3,62.56666666666667,zero
Качканар,2018,38996,-0.87,58.7,59.483333333333334,decline
Кашин,2018,14475,0,57.35,37.61666666666667,zero
Кашира,2018,48656,-1.2,54.8333333333333,38.15,decline
Кедровый (Томская область),2018,2024,-0.83,57.5666666666667,79.56666666666666,decline
Кемерово,2018,558973,0.37,55.3541666666667,86.08333333333333,growh
Кемь (город),2018,11182,-3.64,64.95,34.6,decline
Керчь,2018,150573,0.67,45.3386111111111,36.46666666666667,growh
Кизел,2018,15572,0,59.05,57.65,zero
Кизилюрт,2018,37171,1.64,43.2,46.86666666666667,growh
Кизляр,2018,48907,1.06,43.85,46.71666666666667,growh
Кимовск,2018,26093,0,53.9666666666667,38.53333333333333,zero
Кимры,2018,45504,0,56.8666666666667,37.35,zero
Кингисепп,2018,46747,-1.19,59.3666666666667,28.6,decline
Кинель,2018,35321,0,53.2333333333333,50.61666666666667,zero
Кинешма,2018,83871,0,57.45,42.15,zero
Киреевск,2018,24642,0,53.9333333333333,37.93333333333333,zero
Киренск,2018,11310,0,57.7833333333333,108.1,zero
Киржач,2018,27157,0,56.15,38.86666666666667,zero
Кириллов (город),2018,7482,0,59.8666666666667,38.38333333333333,zero
Кириши,2018,50885,-2.01,59.45,32.016666666666666,decline
Киров (Калужская область),2018,30839,0,54.0833333333333,34.3,zero
Киров (Кировская область),2018,507155,1.13,58.6,49.65,growh
Кировград,2018,19712,0,57.4333333333333,60.06666666666667,zero
Кирово-Чепецк,2018,72071,-1.65,58.55,50.016666666666666,decline
Кировск (Ленинградская область),2018,26387,1.57,59.8666666666667,30.983333333333334,growh
Кировск (Мурманская область),2018,26581,-0.4,67.6141666666667,33.666666666666664,decline
Кирс,2018,9453,-1.42,59.3371666666667,52.233333333333334,decline
Кирсанов,2018,16409,-1.64,52.65,42.733333333333334,decline
Киселёвск,2018,90980,0,53.9833333333333,86.7,zero
Кисловодск,2018,129593,-0.21,43.9033333333333,42.71666666666667,decline
Клин (город),2018,79168,0.14,56.3338888888889,36.7,growh
Клинцы,2018,62936,0.17,52.7527777777778,32.233333333333334,growh
Княгинино,2018,7062,0,55.8166666666667,45.03333333333333,zero
Ковдор,2018,16623,-1.59,67.5594444444444,30.466666666666665,decline
Ковров,2018,138552,0,56.3605555555556,41.31666666666667,zero
Ковылкино,2018,20072,0,54.0333333333333,43.916666666666664,zero
Когалым,2018,64704,0,62.2666666666667,74.48333333333333,zero
Кодинск,2018,16312,0,58.6,99.18333333333334,zero
Козельск,2018,16370,-1.55,54.0333333333333,35.78333333333333,decline
Козловка (Чувашия),2018,9058,0,55.8333333333333,48.25,zero
Козьмодемьянск,2018,20327,0,56.3333333333333,46.56666666666667,zero
Кола (город),2018,9691,-0.1,68.8830555555556,33.016666666666666,decline
Кологрив,2018,3032,0,58.8252277777778,44.3,zero
Коломна,2018,142691,-0.99,55.0938888888889,38.766666666666666,decline
Колпашево,2018,23209,-0.27,58.3166666666667,82.91666666666667,decline
Кольчугино,2018,43543,0,56.3,39.38333333333333,zero
Коммунар (Гатчинский район),2018,22055,0.41,59.625,30.4,growh
Комсомольск (Ивановская область),2018,8366,0,57.0333333333333,40.38333333333333,zero
Комсомольск-на-Амуре,2018,248254,-0.62,50.55,137,decline
Конаково,2018,39345,0,56.7,36.766666666666666,zero
Кондопога,2018,30299,-1.63,62.2,34.266666666666666,decline
Кондрово,2018,15017,0,54.8,35.93333333333333,zero
Константиновск,2018,17317,0,47.5833333333333,41.1,zero
Копейск,2018,147573,0,55.1,61.61666666666667,zero
Кораблино,2018,11272,0,53.9166666666667,40.016666666666666,zero
Кореновск,2018,42019,0.47,45.4666666666667,39.45,growh
Коркино,2018,34967,0,54.8833333333333,61.4,zero
Королёв (город),2018,222952,0.52,55.9166666666667,37.81666666666667,growh
Короча,2018,5888,0,50.8136111111111,37.166666666666664,zero
Корсаков (город),2018,33203,-0.03,46.6333333333333,142.76666666666668,decline
Коряжма,2018,37092,0,61.3,47.166666666666664,zero
Костерёво,2018,8340,0,55.9333333333333,39.63333333333333,zero
Костомукша,2018,29381,-0.49,64.5833333333333,30.6,decline
Кострома,2018,277280,-0.13,57.7666666666667,40.93333333333333,decline
Котельники,2018,44869,1.16,55.6625,37.86666666666667,growh
Котельниково,2018,20381,0,47.6333333333333,43.13333333333333,zero
Котельнич,2018,23682,-1.19,58.3,48.333333333333336,decline
Котлас,2018,61902,0,61.25,46.65,zero
Котово,2018,22450,0,50.3166666666667,44.8,zero
Котовск (Тамбовская область),2018,29999,-1.17,52.5833333333333,41.5,decline
Кохма,2018,30316,0,56.9333333333333,41.083333333333336,zero
Красавино,2018,6084,0,60.9666666666667,46.483333333333334,zero
Красноармейск (Московская область),2018,26519,-0.33,56.1227777777778,38.13333333333333,decline
Красноармейск (Саратовская область),2018,23296,0,51.0166666666667,45.7,zero
Красновишерск,2018,15587,0,60.4,57.06666666666667,zero
Красногорск,2018,161525,5.3,55.8166666666667,37.333333333333336,rize
Краснодар,2018,899541,2.05,45.0333333333333,38.983333333333334,growh
Краснозаводск,2018,13076,-1.66,56.4380555555556,38.21666666666667,decline
Краснознаменск (Калининградская область),2018,3237,0,54.95,22.5,zero
Краснознаменск (Московская область),2018,41769,1.17,55.6,37.03333333333333,growh
Краснокаменск,2018,52811,0,50.1,118.03333333333333,zero
Краснокамск,2018,53864,0,58.0833333333333,55.75,zero
Красноперекопск,2018,25450,-1.24,45.9553055555556,33.78333333333333,decline
Краснослободск (Волгоградская область),2018,17405,0,48.7,44.56666666666667,zero
Краснослободск (Мордовия),2018,9556,0,54.4333333333333,43.78333333333333,zero
Краснотурьинск,2018,57008,-0.88,59.7666666666667,60.2,decline
Красноуральск,2018,22996,-0.63,58.35,60.05,decline
Красноуфимск,2018,38395,-0.87,56.6166666666667,57.766666666666666,decline
Красноярск,2018,1090811,0.73,56.0119444444444,92.86666666666666,growh
Красный Кут,2018,14718,0,50.95,46.96666666666667,zero
Красный Сулин,2018,38567,0,47.8833333333333,40.06666666666667,zero
Красный Холм,2018,5234,0,58.0633333333333,37.11666666666667,zero
Кремёнки,2018,10692,0,54.8891666666667,37.11666666666667,zero
Кропоткин (город),2018,78631,-0.66,45.4333333333333,40.56666666666667,decline
Крымск,2018,57229,-0.04,44.9333333333333,38,decline
Кстово,2018,67723,0,56.1516666666667,44.18333333333333,zero
Кубинка,2018,20157,-1.01,55.5763888888889,36.68333333333333,decline
Кувандык,2018,24131,0,51.4833333333333,57.35,zero
Кувшиново,2018,9161,0,57.0333333333333,34.166666666666664,zero
Кудрово,2018,60000,400,59.9069444444444,30.5,rize
Кудымкар,2018,31265,0,59.0166666666667,54.666666666666664,zero
Кузнецк,2018,83400,0,53.1166666666667,46.6,zero
Куйбышев (Новосибирская область),2018,44246,0,55.4502777777778,78.3,zero
Кукмор,2018,17700,0,56.1825,50.9,zero
Кулебаки,2018,32943,0,55.4166666666667,42.516666666666666,zero
Кумертау,2018,60807,0,52.7666666666667,55.78333333333333,zero
Кунгур,2018,66157,0,57.4333333333333,56.93333333333333,zero
Купино (Новосибирская область),2018,13781,0,54.3666666666667,77.3,zero
Курган (город),2018,318045,-1.24,55.4408333333333,65.33333333333333,decline
Курганинск,2018,48689,-0.56,44.8833333333333,40.6,decline
Курильск,2018,1607,3.88,45.25,147.88333333333333,growh
Курлово,2018,6141,0,55.45,40.61666666666667,zero
Куровское,2018,20844,-1.16,55.5833333333333,38.916666666666664,decline
Курск,2018,448733,-0.07,51.7166666666667,36.18333333333333,decline
Куртамыш,2018,16702,0,54.9,64.43333333333334,zero
Курчалой,2018,25672,1.63,43.2044444444444,46.083333333333336,growh
Курчатов (Россия),2018,38344,-1.11,51.6666666666667,35.65,decline
Куса,2018,17368,0,55.3333333333333,59.43333333333333,zero
Кушва,2018,28060,-1.23,58.2833333333333,59.733333333333334,decline
Кызыл,2018,116983,0.83,51.7,94.36666666666666,growh
Кыштым,2018,37480,0,55.7,60.55,zero
Кяхта,2018,20013,0,50.35,106.45,zero
Лабинск,2018,60164,-1.19,44.6333333333333,40.733333333333334,decline
Лабытнанги,2018,26281,0,66.6580555555555,66.38333333333334,zero
Лагань,2018,13137,0,45.3925,47.35,zero
Ладушкин,2018,4007,0,54.5666666666667,20.166666666666668,zero
Лаишево,2018,8518,0,55.4,49.55,zero
Лакинск,2018,14568,0,56.0169444444444,39.93333333333333,zero
Лангепас,2018,43534,0,61.25,75.16666666666667,zero
Лахденпохья,2018,7294,-2.08,61.5166666666667,30.2,decline
Лебедянь,2018,19288,-1.1,53.0115527777778,39.11666666666667,decline
Лениногорск (Татарстан),2018,63049,0,54.5988666666667,52.43333333333333,zero
Ленинск (Волгоградская область),2018,15149,0,48.7,45.2,zero
Ленинск-Кузнецкий,2018,96921,0,54.65,86.16666666666667,zero
Ленск,2018,23660,0,60.7166666666667,114.9,zero
Лермонтов (город),2018,22612,0.6,44.1052777777778,42.96666666666667,growh
Лесной (город),2018,49056,-0.19,58.6333333333333,59.78333333333333,decline
Лесозаводск,2018,35506,-0.87,45.4666666666667,133.4,decline
Лесосибирск,2018,59642,0,58.2333333333333,92.48333333333333,zero
Ливны,2018,47221,-0.56,52.4253055555556,37.6,decline
Ликино-Дулёво,2018,29376,-1.06,55.7152777777778,38.95,decline
Липецк,2018,509735,-0.14,52.6166666666667,39.6,decline
Липки,2018,8976,0,53.95,37.7,zero
Лиски,2018,53897,-0.53,50.9822222222222,39.483333333333334,decline
Лихославль,2018,11790,0,57.1166666666667,35.46666666666667,zero
Лобня,2018,88220,0.99,56.0119444444444,37.46666666666667,growh
Лодейное Поле,2018,19671,0,60.7333333333333,33.55,zero
Лосино-Петровский,2018,25424,0.21,55.8666666666667,38.2,growh
Луга,2018,35785,0,58.7333333333333,29.85,zero
Луза (город),2018,10232,-1.23,60.6166666666667,47.28333333333333,decline
Лукоянов,2018,14136,0,55.0383333333333,44.483333333333334,zero
Луховицы,2018,30228,-0.14,54.9666666666667,39.016666666666666,decline
Лысково,2018,21293,0,56.0127777777778,45.016666666666666,zero
Лысьва,2018,62592,0,58.1003805555556,57.8,zero
Лыткарино,2018,57946,0.66,55.5836111111111,37.9,growh
Льгов,2018,18774,-2.1,51.6666666666667,35.266666666666666,decline
"Любань (город, Россия)",2018,4610,0,59.35,31.25,zero
Люберцы,2018,202918,2.64,55.6813888888889,37.88333333333333,growh
Любим,2018,5125,0,58.35,40.7,zero
Людиново,2018,38846,0,53.8666666666667,34.46666666666667,zero
Лянтор,2018,39841,0,61.6166666666667,72.16666666666667,zero
Магадан,2018,92782,0.08,59.5666666666667,150.8,growh
Магас,2018,8771,12.19,43.1666666666667,44.81666666666667,rize
Магнитогорск,2018,418241,0,53.3833333333333,59.03333333333333,zero
Майкоп,2018,141970,-0.96,44.6166666666667,40.11666666666667,decline
Майский (Кабардино-Балкария),2018,27074,0.07,43.6277777777778,44.06666666666667,growh
Макаров (город),2018,6567,-2.23,48.6166666666667,142.78333333333333,decline
Макарьев,2018,6632,0,57.8833333333333,43.8,zero
Макушино,2018,7810,0,55.2,67.25,zero
Малая Вишера,2018,11015,0,58.85,32.21666666666667,zero
Малгобек,2018,37442,1.55,43.5088888888889,44.583333333333336,growh
Малмыж,2018,7422,-1.45,56.5227777777778,50.666666666666664,decline
Малоархангельск (Орловская область),2018,3276,-0.52,52.4,36.5,decline
Малоярославец,2018,27791,0,55,36.46666666666667,zero
Мамадыш,2018,15699,0,55.7,51.4,zero
Мамоново,2018,8056,0,54.4666666666667,19.933333333333334,zero
Мантурово,2018,15619,0,58.3333333333333,44.766666666666666,zero
Мариинск,2018,39091,0,56.2166666666667,87.75,zero
Мариинский Посад,2018,8755,0,56.1166666666667,47.71666666666667,zero
Маркс (город),2018,31788,0,51.7,46.75,zero
Махачкала,2018,596356,0.57,42.9833333333333,47.5,growh
Мглин,2018,7578,-3.88,53.0611111111111,32.833333333333336,decline
Мегион,2018,48283,0,61.0333333333333,76.1,zero
Медвежьегорск,2018,14340,-0.73,62.9166666666667,34.45,decline
Медногорск,2018,25610,0,51.4222222222222,57.583333333333336,zero
Медынь,2018,8032,0,54.9666666666667,35.86666666666667,zero
Межгорье (Башкортостан),2018,15861,0,54.05,57.81666666666667,zero
Междуреченск,2018,97060,-0.85,53.6833333333333,88.05,decline
Мезень (город),2018,3287,0,65.85,44.233333333333334,zero
Меленки,2018,14013,0,55.3333333333333,41.63333333333333,zero
Мелеуз,2018,58536,0,52.95,55.93333333333333,zero
Менделеевск,2018,22203,0,55.9,52.31666666666667,zero
Мензелинск,2018,17153,0,55.7166666666667,53.083333333333336,zero
Мещовск,2018,4037,0,54.3166666666667,35.28333333333333,zero
Миасс,2018,151856,0,55.05,60.1,zero
Микунь,2018,9837,0,62.35,50.06666666666667,zero
Миллерово,2018,35540,0,48.9166666666667,40.4,zero
Минеральные Воды,2018,74758,-0.83,44.2008333333333,43.1,decline
Минусинск,2018,68410,0,53.7,91.68333333333334,zero
Миньяр,2018,9342,0,55.0666666666667,57.55,zero
"Мирный (город, Архангельская область)",2018,32175,0,62.7602777777778,40.333333333333336,zero
Мирный (Якутия),2018,35376,0,62.5333333333333,113.95,zero
Михайлов (город),2018,10340,0,54.2333333333333,39.03333333333333,zero
Михайловка (город),2018,58407,0,50.0666666666667,43.233333333333334,zero
Михайловск (Свердловская область),2018,9088,0,56.4333333333333,59.11666666666667,zero
Михайловск (Ставропольский край),2018,90698,3.16,45.13,42.016666666666666,growh
Мичуринск,2018,93330,-0.38,52.8922222222222,40.483333333333334,decline
Могоча,2018,13442,0,53.7333333333333,119.76666666666667,zero
Можайск,2018,30190,-0.82,55.5,36.03333333333333,decline
Можга,2018,49617,0,56.45,52.21666666666667,zero
Моздок,2018,41728,0.77,43.7472222222222,44.65,growh
Мончегорск,2018,42099,-1.13,67.9394444444444,32.9,decline
Морозовск,2018,25467,0,48.35,41.833333333333336,zero
Моршанск,2018,38943,-1.06,53.45,41.8,decline
Мосальск,2018,4161,0,54.4833333333333,34.983333333333334,zero
Москва,2018,12506468,1.02,55.7558333333333,37.61666666666667,growh
Муравленко,2018,32540,0,63.7944444444444,74.48333333333333,zero
Мураши,2018,6218,-1.65,59.3833333333333,48.96666666666667,decline
Мурманск,2018,295374,-0.91,68.9666666666667,33.083333333333336,decline
Мценск,2018,37725,-1.63,53.2783333333333,36.56666666666667,decline
Мыски,2018,41628,0,53.7,87.81666666666666,zero
Мытищи,2018,211606,3.02,55.9166666666667,37.733333333333334,growh
Мышкин,2018,5738,0,57.7833333333333,38.45,zero
Набережные Челны,2018,529797,0,55.7,52.333333333333336,zero
Навашино,2018,15051,0,55.5333333333333,42.2,zero
Наволоки,2018,9546,0,57.4666666666667,41.96666666666667,zero
Надым,2018,44660,0,65.5333333333333,72.51666666666667,zero
Назарово (Красноярский край),2018,50397,0,56.0063888888889,90.38333333333334,zero
Назрань,2018,117936,1.65,43.2166666666667,44.766666666666666,growh
Называевск,2018,11249,0,55.5666666666667,71.35,zero
Нальчик,2018,239300,0.04,43.4852777777778,43.6,growh
Нариманов (город),2018,11118,0,46.6833333333333,47.85,zero
Наро-Фоминск,2018,62119,0.19,55.3833333333333,36.733333333333334,growh
Нарткала,2018,30704,0.2,43.5566666666667,43.85,growh
Нарьян-Мар,2018,24775,0.49,67.6377777777778,53,growh
Находка,2018,149316,-1.39,42.8166666666667,132.88333333333333,decline
Невель,2018,15079,-0.36,56.0166666666667,29.933333333333334,decline
Невельск,2018,10421,-2.43,46.65,141.86666666666667,decline
Невинномысск,2018,117446,-0.2,44.6333333333333,41.93333333333333,decline
Невьянск,2018,23200,-0.63,57.4833333333333,60.2,decline
Нелидово,2018,19400,0,56.2166666666667,32.78333333333333,zero
Неман (город),2018,10931,0,55.0333333333333,22.033333333333335,zero
Нерехта (город),2018,21403,0,57.45,40.583333333333336,zero
Нерчинск,2018,14912,0,51.9833333333333,116.58333333333333,zero
Нерюнгри,2018,57247,0,56.6583333333333,124.71666666666667,zero
Нестеров (Калининградская область),2018,4086,0,54.6333333333333,22.566666666666666,zero
Нефтегорск (Самарская область),2018,18119,0,52.8,51.166666666666664,zero
Нефтекамск,2018,126805,0,56.0833333333333,54.25,zero
Нефтекумск,2018,24763,-0.31,44.7505555555556,44.96666666666667,decline
Нефтеюганск,2018,126157,0,61.1,72.6,zero
Нея (город),2018,8964,0,58.2944444444444,43.86666666666667,zero
Нижневартовск,2018,274575,0,60.95,76.6,zero
Нижнекамск,2018,237250,0,55.6333333333333,51.81666666666667,zero
Нижнеудинск,2018,33954,0,54.9,99.01666666666667,zero
Нижние Серги,2018,9424,0,56.6666666666667,59.3,zero
Нижний Ломов,2018,21189,0,53.5333333333333,43.68333333333333,zero
Нижний Новгород,2018,1259013,-0.4,56.3269444444444,44,decline
Нижний Тагил,2018,353950,-0.49,57.9166666666667,59.96666666666667,decline
Нижняя Салда,2018,17380,0,58.0833333333333,60.71666666666667,zero
Нижняя Тура,2018,20217,0,58.6208333333333,59.833333333333336,zero
Николаевск (Волгоградская область),2018,13840,0,50.0272222222222,45.45,zero
Николаевск-на-Амуре,2018,18636,-2.61,53.15,140.73333333333332,decline
Никольск (Вологодская область),2018,8026,0,59.5333333333333,45.45,zero
Никольск (Пензенская область),2018,21056,0,53.7166666666667,46.083333333333336,zero
Никольское (город),2018,21888,0,59.7,30.783333333333335,zero
Новая Ладога,2018,8203,-2.5,60.1,32.3,decline
Новая Ляля,2018,11947,0,59.05,60.6,zero
Новоалександровск,2018,26997,-0.04,45.4933333333333,41.21666666666667,decline
Новоалтайск,2018,73439,-0.37,53.4,83.93333333333334,decline
Новоаннинский,2018,16436,0,50.5166666666667,42.666666666666664,zero
Нововоронеж,2018,31503,-0.33,51.3166666666667,39.21666666666667,decline
Новодвинск,2018,38735,0,64.4166666666667,40.81666666666667,zero
Новозыбков,2018,40107,-0.91,52.5333333333333,31.933333333333334,decline
Новокубанск,2018,35287,-0.42,45.1,41.05,decline
Новокузнецк,2018,552445,0,53.7333333333333,87.08333333333333,zero
Новокуйбышевск,2018,102933,0,53.1,49.916666666666664,zero
Новомичуринск,2018,16852,0,54.0333333333333,39.75,zero
Новомосковск (Россия),2018,125647,0,54.0333333333333,38.266666666666666,zero
Новопавловск,2018,26238,0.02,43.9636111111111,43.63333333333333,growh
Новоржев,2018,3252,-1.33,57.0333333333333,29.333333333333332,decline
Новороссийск,2018,273278,0.92,44.7166666666667,37.766666666666666,growh
Новосибирск,2018,1612833,0.62,55.0166666666667,82.91666666666667,growh
Новосиль,2018,3175,-1.27,52.9666666666667,37.05,decline
Новосокольники,2018,7200,-2.39,56.3333333333333,30.15,decline
Новотроицк,2018,88216,0,51.2066666666667,58.31666666666667,zero
Новоузенск,2018,15929,0,50.45,48.15,zero
Новоульяновск,2018,14164,0,54.15,48.38333333333333,zero
Новоуральск,2018,81202,-0.46,57.25,60.083333333333336,decline
Новохопёрск,2018,6108,-1.29,51.1,41.61666666666667,decline
Новочебоксарск,2018,126072,0,56.1166666666667,47.5,zero
Новочеркасск,2018,168766,0,47.4358333333333,40.083333333333336,zero
Новошахтинск,2018,108782,0,47.7666666666667,39.916666666666664,zero
Новый Оскол,2018,18856,0,50.7666666666667,37.86666666666667,zero
Новый Уренгой,2018,113254,0,66.0847222222222,76.66666666666667,zero
Ногинск,2018,102592,0.32,55.85,38.43333333333333,growh
Нолинск,2018,9722,0.02,57.5572222222222,49.93333333333333,growh
Норильск,2018,178018,0,69.3333333333333,88.21666666666667,zero
Ноябрьск,2018,106879,0,63.2016666666667,75.45,zero
Нурлат,2018,32954,0,54.4333333333333,50.8,zero
Нытва,2018,18804,0,57.9333333333333,55.333333333333336,zero
Нюрба,2018,9850,0,63.2833333333333,118.33333333333333,zero
Нягань,2018,57765,0,62.1333333333333,65.38333333333334,zero
Нязепетровск,2018,11752,0,56.05,59.6,zero
Няндома,2018,20143,0,61.6666666666667,40.2,zero
Облучье,2018,8540,-2.31,49,131.05,decline
Обнинск,2018,113639,0,55.1,36.61666666666667,zero
Обоянь,2018,13413,0,51.2111111111111,36.266666666666666,zero
Обь (город),2018,29194,0,54.9916666666667,82.7,zero
Одинцово,2018,140537,-0.68,55.6733333333333,37.266666666666666,decline
Озёрск (Калининградская область),2018,4108,0,54.4166666666667,22.016666666666666,zero
Озёрск (Челябинская область),2018,79265,0,55.75,60.71666666666667,zero
Озёры,2018,25359,-0.65,54.857875,38.53333333333333,decline
Октябрьск (Самарская область),2018,26478,0,53.1666666666667,48.666666666666664,zero
Октябрьский (город),2018,113929,0,54.4833333333333,53.483333333333334,zero
Окуловка,2018,10470,0,58.3833333333333,33.3,zero
Олёкминск,2018,9202,0,60.3833333333333,120.43333333333334,zero
Оленегорск,2018,20847,-0.91,68.15,33.28333333333333,decline
Олонец,2018,8091,-0.48,60.9833333333333,32.96666666666667,decline
Омск,2018,1172070,-0.54,54.9666666666667,73.38333333333334,decline
Омутнинск,2018,22009,-1.38,58.6666666666667,52.18333333333333,decline
Онега (город),2018,19381,0,63.9166666666667,38.083333333333336,zero
Опочка,2018,10144,-1.58,56.7166666666667,28.65,decline
Орёл (город),2018,315308,-1.04,52.9666666666667,36.083333333333336,decline
Оренбург,2018,564773,0.06,51.7666666666667,55.1,growh
Орехово-Зуево,2018,118822,-0.95,55.8,38.96666666666667,decline
Орлов (город),2018,6607,-1.52,58.5388888888889,48.88333333333333,decline
Орск,2018,230414,0,51.2,58.61666666666667,zero
Оса (город),2018,21072,0,57.2833333333333,55.45,zero
Осинники,2018,43008,0,53.6166666666667,87.33333333333333,zero
Осташков,2018,16318,0,57.15,33.1,zero
Остров (город),2018,20427,-0.69,57.3333333333333,28.35,decline
Островной,2018,1847,-1.55,68.0530555555556,39.5,decline
Острогожск,2018,32601,-0.35,50.8666666666667,39.06666666666667,decline
Отрадное (город),2018,25421,0.3,59.7833333333333,30.816666666666666,growh
Отрадный,2018,47542,0,53.3666666666667,51.35,zero
Оха,2018,20715,-0.96,53.5833333333333,142.93333333333334,decline
Оханск,2018,7072,0,57.7166666666667,55.38333333333333,zero
Очёр,2018,14240,0,57.8833333333333,54.71666666666667,zero
Павлово,2018,58163,0,55.9619444444444,43.083333333333336,zero
Павловск (Воронежская область),2018,24858,-0.75,50.45,40.06666666666667,decline
Павловский Посад,2018,64865,-0.87,55.7833333333333,38.65,decline
Палласовка,2018,14940,0,50.05,46.88333333333333,zero
Партизанск,2018,37059,-0.62,43.1333333333333,133.13333333333333,decline
Певек,2018,4329,-4.79,69.7,170.31666666666666,decline
Пенза,2018,523553,-0.03,53.2,45,decline
Первомайск (Нижегородская область),2018,13626,0,54.8666666666667,43.8,zero
Первоуральск,2018,123655,-0.64,56.9166666666667,59.95,decline
Перевоз (Нижегородская область),2018,8928,0,55.6,44.55,zero
Пересвет (город),2018,13675,-0.59,56.4166666666667,38.18333333333333,decline
Переславль-Залесский,2018,39105,0,56.7381333333333,38.85,zero
Пермь,2018,1051583,0.34,58.0138888888889,56.233333333333334,growh
Пестово,2018,15461,0,58.6,35.81666666666667,zero
Петров Вал,2018,12177,0,50.1333333333333,45.21666666666667,zero
Петровск (Саратовская область),2018,29376,0,52.3166666666667,45.38333333333333,zero
Петровск-Забайкальский,2018,16524,0,51.2833333333333,108.83333333333333,zero
Петрозаводск,2018,279190,0.23,61.7961111111111,34.333333333333336,growh
Петропавловск-Камчатский,2018,181216,0.42,53.0166666666667,158.65,growh
Петухово (Курганская область),2018,10304,0,55.0666666666667,67.88333333333334,zero
Петушки (город),2018,13382,0,55.9333333333333,39.46666666666667,zero
Печора (город),2018,40048,0,65.1166666666667,57.11666666666667,zero
Печоры,2018,9871,-1.62,57.8166666666667,27.6,decline
Пикалёво,2018,20183,-0.96,59.5133333333333,34.166666666666664,decline
Пионерский (город),2018,11352,0,54.95,20.216666666666665,zero
Питкяранта,2018,10479,-1.04,61.5666666666667,31.483333333333334,decline
Плавск,2018,15870,0,53.7,37.3,zero
Пласт (город),2018,17648,0,54.3666666666667,60.81666666666667,zero
Плёс (город),2018,1796,0,57.45,41.5,zero
Поворино,2018,17025,-0.41,51.2,42.25,decline
Подольск,2018,302831,1.06,55.4297222222222,37.53333333333333,growh
Подпорожье,2018,17678,0,60.9166666666667,34.166666666666664,zero
Покачи,2018,17905,0,61.75,75.58333333333333,zero
"Покров (город, Россия)",2018,17308,0,55.9177777777778,39.166666666666664,zero
Покровск (Якутия),2018,9177,0,61.4833333333333,129.15,zero
Полевской,2018,61853,-0.65,56.45,60.18333333333333,decline
Полесск,2018,7041,0,54.8666666666667,21.1,zero
Полысаево,2018,26510,0,54.6,86.28333333333333,zero
Полярные Зори,2018,14421,-1.52,67.3658333333333,32.483333333333334,decline
Полярный,2018,17650,0.47,69.1983333333333,33.45,growh
Поронайск,2018,15311,0,49.2166666666667,143.1,zero
Порхов,2018,8743,-2.05,57.7666666666667,29.55,decline
Похвистнево,2018,28223,0,53.65,52.13333333333333,zero
Почеп,2018,16687,0.14,52.9333333333333,33.45,growh
Починок (город),2018,8545,-1.65,54.4,32.45,decline
Пошехонье (город),2018,5867,0,58.5,39.11666666666667,zero
Правдинск,2018,4171,0,54.45,21.016666666666666,zero
Приволжск,2018,15824,0,57.3833333333333,41.28333333333333,zero
Приморск (Калининградская область),2018,1960,0,54.7333333333333,20,zero
Приморск (Ленинградская область),2018,5682,-0.99,60.3666666666667,28.616666666666667,decline
Приморско-Ахтарск,2018,32048,0.39,46.05,38.18333333333333,growh
Приозерск,2018,18616,0,61.0333333333333,30.116666666666667,zero
Прокопьевск,2018,196406,0,53.8833333333333,86.71666666666667,zero
Пролетарск (город),2018,19290,0,46.7030555555556,41.71666666666667,zero
Протвино,2018,36400,-1.15,54.8794444444444,37.2,decline
Прохладный,2018,57857,-0.04,43.75,44.03333333333333,decline
Пугачёв (город),2018,41056,0,52.0166666666667,48.8,zero
Пудож,2018,8897,-1.63,61.8,36.53333333333333,decline
Пустошка,2018,4017,-1.62,56.3333333333333,29.366666666666667,decline
Пучеж,2018,7078,0,56.9833333333333,43.166666666666664,zero
Пушкино,2018,105479,-1.03,56.0166666666667,37.85,decline
Пущино,2018,20962,-0.88,54.8333333333333,37.61666666666667,decline
Пыталово,2018,5348,0.24,57.0666666666667,27.916666666666668,growh
Пыть-Ях,2018,40798,0,60.75,72.78333333333333,zero
Пятигорск,2018,145885,0.03,44.05,43.05,growh
Радужный (Владимирская область),2018,18535,0,55.9977777777778,40.31666666666667,zero
Радужный (Ханты-Мансийский автономный округ),2018,43157,0,62.1333333333333,77.46666666666667,zero
Райчихинск,2018,17372,-1.24,49.8,129.4,decline
Раменское,2018,116077,2.73,55.5666666666667,38.21666666666667,growh
Рассказово,2018,43330,-0.98,52.6666666666667,41.88333333333333,decline
Ревда (город),2018,62687,0.09,56.8,59.916666666666664,growh
Реж,2018,37152,-0.72,57.3666666666667,61.4,decline
Реутов,2018,103779,3.79,55.7666666666667,37.86666666666667,growh
Ржев,2018,59804,0,56.2655833333333,34.31666666666667,zero
Родники (город),2018,24662,0,57.1,41.733333333333334,zero
Рославль,2018,50112,-1.49,53.9491666666667,32.85,decline
Россошь,2018,62827,-0.09,50.2,39.583333333333336,decline
Ростов-на-Дону,2018,1130305,0.44,47.2405555555556,39.7,growh
Рошаль (город),2018,20418,-0.84,55.6636111111111,39.85,decline
Ртищево,2018,39390,0,52.25,43.78333333333333,zero
Рубцовск,2018,144128,-0.83,51.5272222222222,81.21666666666667,decline
Рудня (город),2018,9484,0,54.95,31.066666666666666,zero
Руза,2018,13182,-1.65,55.6997638888889,36.18333333333333,decline
Рузаевка,2018,45988,0,54.0666666666667,44.95,zero
Рыбинск,2018,190429,0,58.05,38.833333333333336,zero
Рыбное,2018,19265,0,54.7333333333333,39.516666666666666,zero
Рыльск,2018,16319,0,51.5666666666667,34.68333333333333,zero
Ряжск,2018,21623,0,53.7166666666667,40.06666666666667,zero
Рязань,2018,538962,0.25,54.6166666666667,39.71666666666667,growh
Саки (город),2018,24797,-0.35,45.1336111111111,33.56666666666667,decline
Салават,2018,153181,0,53.3666666666667,55.93333333333333,zero
Салаир,2018,7589,0,54.2333333333333,85.8,zero
Салехард,2018,49214,1.46,66.5333333333333,66.63333333333334,growh
Сальск,2018,58179,0,46.4833333333333,41.53333333333333,zero
Самара,2018,1163399,-0.54,53.1833333333333,50.11666666666667,decline
Санкт-Петербург,2018,5351935,1.33,59.95,30.316666666666666,growh
Саранск,2018,318841,1.29,54.1833333333333,45.18333333333333,growh
Сарапул,2018,97910,0,56.4666666666667,53.8,zero
Саратов,2018,844858,-0.05,51.5333333333333,46,decline
Саров,2018,95065,0,54.9333333333333,43.31666666666667,zero
Сасово,2018,25747,0,54.35,41.916666666666664,zero
Сатка,2018,42214,0,55.05,59.05,zero
Сафоново (город),2018,42147,-1.31,55.1,33.25,decline
Саяногорск,2018,47358,-1.3,53.1,91.4,decline
Саянск,2018,38897,0,54.1166666666667,102.16666666666667,zero
Светлогорск (Калининградская область),2018,13030,0,54.9333333333333,20.15,zero
Светлоград,2018,36358,-1.56,45.3308333333333,42.85,decline
Светлый (Калининградская область),2018,22140,0,54.6833333333333,20.133333333333333,zero
Светогорск,2018,15546,-1.11,61.1083333333333,28.85,decline
Свирск,2018,13110,0,53.0833333333333,103.33333333333333,zero
Свободный (город),2018,53678,-0.88,51.3833333333333,128.13333333333333,decline
Себеж,2018,5401,-0.94,56.2833333333333,28.483333333333334,decline
Севастополь,2018,436670,1.85,44.6,33.53333333333333,growh
Северо-Курильск,2018,2507,-3.09,50.6833333333333,156.11666666666667,decline
Северобайкальск,2018,23673,0,55.6333333333333,109.31666666666666,zero
Северодвинск,2018,183996,0,64.5666666666667,39.85,zero
Североморск,2018,52255,2.04,69.0691666666667,33.416666666666664,growh
Североуральск,2018,26288,-0.96,60.15,59.93333333333333,decline
Северск,2018,107494,-0.4,56.6,84.85,decline
Севск,2018,6663,-0.89,52.15,34.483333333333334,decline
Сегежа,2018,26666,-1.63,63.7333333333333,34.31666666666667,decline
Сельцо (город),2018,16554,-0.66,53.3694444444444,34.1,decline
Семёнов (город),2018,24536,0,56.7894444444444,44.483333333333334,zero
Семикаракорск,2018,22118,0,47.5166666666667,40.8,zero
Семилуки,2018,26732,-0.24,51.6833333333333,39.03333333333333,decline
Сенгилей,2018,6568,0,53.9666666666667,48.8,zero
Серафимович (город),2018,8987,0,49.5833333333333,42.733333333333334,zero
Сергач,2018,20416,0,55.5333333333333,45.46666666666667,zero
Сергиев Посад,2018,103444,-1.09,56.3,38.13333333333333,decline
Сердобск,2018,32554,0,52.4666666666667,44.21666666666667,zero
Серов (город),2018,97366,-0.41,59.5833333333333,60.56666666666667,decline
Серпухов,2018,125817,-0.09,54.9166666666667,37.4,decline
Сертолово,2018,52535,2.39,60.15,30.2,growh
Сибай,2018,61054,0,52.7,58.65,zero
Сим (город),2018,13170,0,54.9833333333333,57.68333333333333,zero
Симферополь,2018,341799,0.19,44.9480555555556,34.1,growh
Сковородино,2018,9231,-0.56,53.9833333333333,123.93333333333334,decline
Скопин,2018,26329,0,53.8166666666667,39.55,zero
Славгород (Россия),2018,29916,-0.89,53,78.65,decline
Славск,2018,4145,0,55.05,21.666666666666668,zero
Славянск-на-Кубани,2018,66285,0.41,45.2586111111111,38.11666666666667,growh
Сланцы (город),2018,32838,0,59.1166666666667,28.083333333333332,zero
Слободской,2018,32793,-0.97,58.7241666666667,50.15,decline
Слюдянка (город),2018,18241,0,51.6666666666667,103.7,zero
Снежинск,2018,50759,0,56.0833333333333,60.733333333333334,zero
Снежногорск (Мурманская область),2018,12642,-0.43,69.1941666666667,33.21666666666667,decline
Собинка,2018,18059,0,55.99,40.016666666666666,zero
Советск (Калининградская область),2018,40486,0,55.0833333333333,21.883333333333333,zero
Советск (Кировская область),2018,15538,-0.69,57.6013055555556,48.93333333333333,decline
Советск (Тульская область),2018,7440,0,53.9333333333333,37.63333333333333,zero
Советская Гавань,2018,24249,-1.71,48.9575,140.26666666666668,decline
Советский (Ханты-Мансийский автономный округ),2018,29456,0,61.3666666666667,63.56666666666667,zero
Сокол (город),2018,37191,0,59.4666666666667,40.11666666666667,zero
Солигалич,2018,5976,0,59.0833333333333,42.28333333333333,zero
Соликамск,2018,94628,0,59.6333333333333,56.766666666666666,zero
Солнечногорск,2018,51919,-1.37,56.1844444444444,36.983333333333334,decline
Соль-Илецк,2018,27189,0,51.1666666666667,54.983333333333334,zero
Сольвычегодск,2018,2098,0,61.3333333333333,46.916666666666664,zero
Сольцы,2018,8995,0,58.1166666666667,30.316666666666666,zero
Сорочинск,2018,27912,0,52.4333333333333,53.15,zero
Сорск,2018,11416,-0.85,54,90.25,decline
Сортавала,2018,18801,0.21,61.7,30.666666666666668,growh
Сосенский,2018,11047,0,54.05,35.96666666666667,zero
Сосновка (Кировская область),2018,11027,-2.02,56.2541666666667,51.266666666666666,decline
Сосновоборск (Красноярский край),2018,39375,0,56.1333333333333,93.36666666666666,zero
Сосновый Бор (город),2018,68045,0,59.8833333333333,29.1,zero
Сосногорск,2018,26571,0,63.5833333333333,53.93333333333333,zero
Сочи,2018,424281,3.1,43.5852777777778,39.71666666666667,growh
Спас-Деменск,2018,4357,0,54.4166666666667,34.03333333333333,zero
Спас-Клепики,2018,5411,0,55.1333333333333,40.166666666666664,zero
Спасск (Пензенская область),2018,7106,-1,53.9333333333333,43.18333333333333,decline
Спасск-Дальний,2018,40717,-1,44.6,132.81666666666666,decline
Спасск-Рязанский,2018,6555,0,54.4,40.38333333333333,zero
Среднеколымск,2018,3488,0,67.4580555555556,153.7,zero
Среднеуральск,2018,23353,2,56.9833333333333,60.46666666666667,growh
Сретенск,2018,6643,0,52.25,117.71666666666667,zero
Ставрополь,2018,433931,0.08,45.0333333333333,41.96666666666667,growh
Старая Купавна,2018,22099,0.57,55.8,38.18333333333333,growh
Старая Русса,2018,29019,0,57.9833333333333,31.35,zero
Старица (город),2018,7872,0,56.5166666666667,34.93333333333333,zero
Стародуб,2018,18615,-1.11,52.5833333333333,32.766666666666666,decline
Старый Крым,2018,9373,0.66,45.0291666666667,35.083333333333336,growh
Старый Оскол,2018,223360,0,51.2980555555556,37.833333333333336,zero
Стерлитамак,2018,280233,0,53.6333333333333,55.95,zero
Стрежевой,2018,41475,-0.62,60.7333333333333,77.58333333333333,decline
Строитель (город),2018,24526,0,50.7833333333333,36.483333333333334,zero
Струнино,2018,13281,0,56.3733333333333,38.583333333333336,zero
Ступино,2018,66075,-0.4,54.8869444444444,38.06666666666667,decline
Суворов (город),2018,17506,0,54.1166666666667,36.5,zero
Суджа,2018,5738,0,51.1906944444444,35.266666666666666,zero
Судогда,2018,10527,0,55.95,40.86666666666667,zero
Суздаль,2018,9749,0,56.4211111111111,40.43333333333333,zero
Сунжа (город),2018,65492,0.75,43.3138888888889,45.05,growh
Суоярви,2018,8920,-1.47,62.0833333333333,32.36666666666667,decline
Сураж,2018,10884,-0.87,53.0166666666667,32.4,decline
Сургут,2018,360590,0,61.25,73.43333333333334,zero
Суровикино,2018,18954,0,48.6,42.85,zero
Сурск,2018,6254,-2.17,53.0833333333333,45.7,decline
Сусуман,2018,4760,-2.84,62.7833333333333,148.15,decline
Сухиничи,2018,15111,0,54.1,35.35,zero
Сухой Лог (город),2018,33689,-0.97,56.9058333333333,62.03333333333333,decline
Сызрань,2018,173260,0,53.1666666666667,48.46666666666667,zero
Сыктывкар,2018,245083,0.18,61.6666666666667,50.81666666666667,growh
Сысерть (город),2018,20962,0,56.5,60.81666666666667,zero
Сычёвка,2018,8220,-0.1,55.8333333333333,34.28333333333333,decline
Сясьстрой,2018,12824,-1.4,60.1333333333333,32.56666666666667,decline
Тавда (город),2018,33356,-0.92,58.05,65.26666666666667,decline
Таганрог,2018,250287,0,47.2391666666667,38.88333333333333,zero
Тайга (город),2018,24183,0,56.0666666666667,85.61666666666666,zero
Тайшет,2018,33364,0,55.9333333333333,98.01666666666667,zero
Талдом,2018,12777,-1.4,56.7333333333333,37.53333333333333,decline
Талица (город),2018,15874,0,57.0125,63.71666666666667,zero
Тамбов,2018,293661,1.14,52.7166666666667,41.43333333333333,growh
Тара (город),2018,28116,0,56.9025,74.36666666666666,zero
Тарко-Сале,2018,21665,0,64.9147222222222,77.76666666666667,zero
Таруса,2018,9302,0,54.7166666666667,37.18333333333333,zero
Татарск,2018,23956,0,55.2166666666667,75.96666666666667,zero
Таштагол,2018,23107,0,52.7666666666667,87.86666666666666,zero
Тверь,2018,420065,0.17,56.857825,35.916666666666664,growh
Теберда,2018,8670,-0.12,43.45,41.75,decline
Тейково,2018,32791,0,56.85,40.55,zero
Темников,2018,6291,0,54.6333333333333,43.21666666666667,zero
Темрюк,2018,40755,1.61,45.2666666666667,37.38333333333333,growh
Терек (город),2018,19489,0.21,43.4833333333333,44.13333333333333,growh
Тетюши,2018,11337,0,54.9333333333333,48.833333333333336,zero
Тимашёвск,2018,51925,-1.15,45.6166666666667,38.93333333333333,decline
Тихвин,2018,57900,0,59.6333333333333,33.5,zero
Тихорецк,2018,58352,-1.07,45.85,40.11666666666667,decline
Тобольск,2018,98886,0,58.1952777777778,68.25,zero
Тогучин,2018,21159,0,55.2333333333333,84.38333333333334,zero
Тольятти,2018,707000,-0.14,53.5166666666667,49.416666666666664,decline
Томари (Россия),2018,3810,0.95,47.7666666666667,142.06666666666666,growh
Томмот,2018,7046,0,58.9666666666667,126.26666666666667,zero
Томск,2018,574002,0.22,56.4886111111111,84.95,growh
Топки,2018,27963,0,55.2833333333333,85.61666666666666,zero
Торопец,2018,12092,0,56.5,31.633333333333333,zero
Тосно,2018,37875,0,59.55,30.9,zero
Тотьма,2018,9895,0,59.9833333333333,42.766666666666666,zero
Трёхгорный,2018,32355,0,54.8,58.45,zero
Троицк (Челябинская область),2018,75231,0,54.0833333333333,61.56666666666667,zero
Туапсе,2018,62269,-0.91,44.1,39.083333333333336,decline
Туймазы,2018,68410,0,54.6,53.7,zero
Тула,2018,482873,-0.48,54.2,37.61666666666667,decline
Тулун,2018,41671,0,54.5666666666667,100.56666666666666,zero
Туран (город),2018,4922,0,52.15,93.91666666666667,zero
Туринск,2018,17316,0,58.0333333333333,63.7,zero
Тутаев,2018,40441,0,57.8833333333333,39.53333333333333,zero
Тында,2018,33061,-0.39,55.15,124.71666666666667,decline
Тырныауз,2018,20566,-0.04,43.3891666666667,42.916666666666664,decline
Тюкалинск,2018,10326,0,55.8666666666667,72.2,zero
Тюмень,2018,768358,3.2,57.15,65.53333333333333,growh
Уварово,2018,23987,-0.72,51.9833333333333,42.266666666666666,decline
Углегорск (Сахалинская область),2018,8860,-2.32,49.0666666666667,142.03333333333333,decline
Удачный,2018,11835,0,66.4,112.3,zero
Удомля,2018,28669,0,57.8833333333333,35.016666666666666,zero
Ужур,2018,15568,0,55.3166666666667,89.81666666666666,zero
Узловая,2018,51922,0,53.9791388888889,38.15,zero
Улан-Удэ,2018,434869,0.68,51.8333333333333,107.61666666666666,growh
Ульяновск,2018,626540,0.32,54.3166666666667,48.36666666666667,growh
Унеча,2018,23550,-1.76,52.85,32.68333333333333,decline
Урай,2018,40559,0,60.1333333333333,64.78333333333333,zero
Урень,2018,12385,0,57.4666666666667,45.78333333333333,zero
Уржум,2018,9919,-0.62,57.1166666666667,50,decline
Урус-Мартан,2018,59954,2.33,43.1291666666667,45.53333333333333,growh
Урюпинск,2018,38267,0,50.8,42.016666666666666,zero
Усинск,2018,38800,0,65.9997694444445,57.53333333333333,zero
Усмань,2018,19956,-0.01,52.05,39.733333333333334,decline
Усолье,2018,6236,0,59.4166666666667,56.68333333333333,zero
Усолье-Сибирское,2018,77989,0,52.75,103.65,zero
Уссурийск,2018,172017,0.8,43.8,131.95,growh
Усть-Джегута,2018,30391,-0.15,44.0861111111111,41.96666666666667,decline
Усть-Илимск,2018,82455,0,58,102.66666666666667,zero
Усть-Катав,2018,22536,0,54.9333333333333,58.166666666666664,zero
Усть-Кут,2018,42272,0,56.8,105.83333333333333,zero
Усть-Лабинск,2018,40687,-1.6,45.2152777777778,39.68333333333333,decline
Устюжна,2018,8712,0,58.8333333333333,36.43333333333333,zero
Уфа,2018,1120547,0.45,54.7333333333333,55.96666666666667,growh
Ухта,2018,97806,0,63.5666666666667,53.7,zero
Учалы,2018,37715,0,54.3166666666667,59.38333333333333,zero
Уяр,2018,12074,0,55.8166666666667,94.31666666666666,zero
Фатеж,2018,5999,0,52.0894444444444,35.85,zero
Феодосия,2018,67902,-0.13,45.0488888888889,35.36666666666667,decline
Фокино (Брянская область),2018,12938,-0.97,53.45,34.416666666666664,decline
Фокино (Приморский край),2018,23077,-0.35,42.9666666666667,132.4,decline
Фролово,2018,37377,0,49.7666666666667,43.65,zero
Фрязино,2018,60437,0.05,55.95,38.05,growh
Фурманов (город),2018,34309,0,57.25,41.1,zero
Хабаровск,2018,618150,0.31,48.4833333333333,135.06666666666666,growh
Хадыженск,2018,22468,-1.05,44.4238888888889,39.53333333333333,decline
Ханты-Мансийск,2018,98485,-0.21,61.0008222222222,69,decline
Харабали,2018,18031,0,47.4,47.25,zero
Харовск,2018,9185,0,59.95,40.2,zero
Хасавюрт,2018,141259,0.87,43.25,46.583333333333336,growh
Хвалынск,2018,12556,0,52.4833333333333,48.1,zero
Хилок (город),2018,10724,0,51.35,110.45,zero
Химки,2018,250688,2.46,55.8891666666667,37.43333333333333,growh
Холм (город),2018,3445,0,57.15,31.183333333333334,zero
Холмск,2018,27954,-0.93,47.0402777777778,142.03333333333333,decline
Хотьково,2018,21349,-0.44,56.25,37.983333333333334,decline
Цивильск,2018,14328,0,55.8666666666667,47.483333333333334,zero
Цимлянск,2018,14558,0,47.6466666666667,42.083333333333336,zero
Циолковский (город),2018,6535,0.14,51.76025,128.11666666666667,growh
Чадан,2018,8991,0,51.2833333333333,91.56666666666666,zero
Чайковский (город),2018,83486,0,56.7666666666667,54.11666666666667,zero
Чапаевск,2018,72944,0,52.9833333333333,49.71666666666667,zero
Чаплыгин (город),2018,11802,-1.22,53.2416666666667,39.96666666666667,decline
Чебаркуль (город),2018,39914,0,54.9777777777778,60.36666666666667,zero
Чебоксары,2018,492331,0.58,56.1166666666667,47.233333333333334,growh
Чегем (город),2018,18156,0.63,43.5666666666667,43.583333333333336,growh
Чекалин (город),2018,941,0,54.1,36.25,zero
Челябинск,2018,1202371,0.29,55.1622222222222,61.4,growh
Чердынь,2018,4687,0,60.4,56.483333333333334,zero
Черемхово,2018,51230,0,53.15,103.06666666666666,zero
Черепаново,2018,19612,0,54.2166666666667,83.36666666666666,zero
Череповец,2018,318856,0,59.1166666666667,37.9,zero
Черкесск,2018,122395,-0.07,44.2163888888889,42.05,decline
Чёрмоз,2018,3519,0,58.7833333333333,56.15,zero
Черноголовка,2018,21342,-1.29,56.0147222222222,38.38333333333333,decline
Черногорск,2018,75067,0.49,53.8166666666667,91.28333333333333,growh
Чернушка (город),2018,33010,0,56.5,56.083333333333336,zero
Черняховск,2018,36423,0,54.6333333333333,21.816666666666666,zero
Чехов (Московская область),2018,71301,1.07,55.145,37.45,growh
Чистополь,2018,60564,0,55.3666666666667,50.63333333333333,zero
Чита,2018,349005,0.55,52.0333333333333,113.5,growh
Чкаловск (Нижегородская область),2018,11569,0,56.7666666666667,43.25,zero
Чудово,2018,14730,0,59.1280555555556,31.65,zero
Чулым (город),2018,11270,0,55.1,80.96666666666667,zero
Чусовой,2018,45291,0,58.2833333333333,57.81666666666667,zero
Чухлома,2018,5054,0,58.75,42.7,zero
Шагонар,2018,10973,0,51.5333333333333,92.9,zero
Шадринск,2018,75623,0,56.0833333333333,63.63333333333333,zero
Шали,2018,53807,1.49,43.145,45.9,growh
Шарыпово,2018,37169,0,55.525,89.2,zero
Шарья,2018,23912,0,58.3666666666667,45.5,zero
Шатура,2018,32838,-1.16,55.5776694444444,39.53333333333333,decline
Шахты,2018,235492,0,47.7122111111111,40.2,zero
Шахунья,2018,20183,0,57.6747222222222,46.61666666666667,zero
Шацк (город),2018,6029,0,54.0333333333333,41.7,zero
Шебекино,2018,42465,0,50.4077777777778,36.88333333333333,zero
Шелехов (город),2018,47608,0,52.2,104.1,zero
Шенкурск,2018,4847,0,62.1,42.9,zero
Шилка (город),2018,12784,0,51.85,116.03333333333333,zero
Шимановск,2018,18643,-0.34,52,127.66666666666667,decline
Шиханы (Саратовская область),2018,5665,0,52.1138888888889,47.18333333333333,zero
Шлиссельбург,2018,14725,-0.26,59.9419444444444,31.033333333333335,decline
Шумерля,2018,29553,0,55.5,46.416666666666664,zero
Шумиха (город),2018,17542,0,55.2333333333333,63.28333333333333,zero
Шуя,2018,58723,0,56.85,41.36666666666667,zero
Щёкино,2018,58088,0,54,37.516666666666666,zero
Щёлкино,2018,10328,-1.2,45.4236111111111,35.81666666666667,decline
Щёлково,2018,125634,-0.17,55.9166666666667,38,decline
Щигры,2018,15292,-1.6,51.8811111111111,36.9,decline
Щучье (Курганская область),2018,9775,0,55.2166666666667,62.766666666666666,zero
Электрогорск,2018,22950,-0.55,55.8833333333333,38.78333333333333,decline
Электросталь,2018,158226,-0.18,55.8,38.45,decline
Электроугли,2018,20823,0.66,55.7166666666667,38.21666666666667,growh
Элиста,2018,103132,-0.74,46.3166666666667,44.266666666666666,decline
Энгельс (город),2018,225752,0,51.4666666666667,46.11666666666667,zero
Эртиль (город),2018,10265,-1.39,51.8333333333333,40.8,decline
Югорск,2018,37150,0,61.3166666666667,63.35,zero
Южа,2018,12834,0,56.5833333333333,42.016666666666666,zero
Южно-Сахалинск,2018,198973,2.1,46.95,142.73333333333332,growh
Южно-Сухокумск,2018,10611,0.64,44.6666666666667,45.65,growh
Южноуральск,2018,37801,0,54.45,61.25,zero
Юрга,2018,81733,0,55.7333333333333,84.9,zero
Юрьев-Польский,2018,18610,0,56.5,39.68333333333333,zero
Юрьевец,2018,8378,0,57.3166666666667,43.1,zero
Юрюзань (город),2018,11685,0,54.8666666666667,58.43333333333333,zero
Юхнов,2018,6079,0,54.75,35.233333333333334,zero
Ядрин,2018,8451,0,55.95,46.2,zero
Якутск,2018,311760,1.25,62.0272222222222,129.71666666666667,growh
Ялта,2018,79457,0,44.4994444444444,34.15,zero
Ялуторовск,2018,39837,0,56.65,66.3,zero
Янаул,2018,25747,0,56.2666666666667,54.93333333333333,zero
Яранск,2018,15985,-0.75,57.3033055555556,47.86666666666667,decline
Яровое,2018,18092,-0.37,52.9333333333333,78.58333333333333,decline
Ярославль,2018,608722,0.11,57.6166666666667,39.85,growh
Ярцево,2018,44097,-1.44,55.0666666666667,32.68333333333333,decline
Ясногорск (Тульская область),2018,15741,0,54.4793833333333,37.68333333333333,zero
Ясный,2018,15675,0,51.0333333333333,59.86666666666667,zero
Яхрома,2018,14275,0.21,56.2833333333333,37.483333333333334,growh
